{
  "round": 1006,
  "date": "2022-03-12",
  "nums": [
    8,
    11,
    15,
    16,
    17,
    37
  ],
  "bonus": 36,
  "firstWinAmount": 2855602125,
  "firstWinners": 9,
  "totalSales": 104542431000,
  "prizes": {
    "first": {
      "amount": 2855602125,
      "winners": 9
    },
    "second": {
      "amount": 65898511,
      "winners": 65
    },
    "third": {
      "amount": 1722318,
      "winners": 2487
    },
    "fourth": {
      "amount": 50000,
      "winners": 131234
    },
    "fifth": {
      "amount": 5000,
      "winners": 2288458
    }
  },
  "methodCounts": {
    "auto": 7,
    "manual": 2,
    "mixed": 0
  },
  "topStores": [
    {
      "rank": 1,
      "name": "다판다25 일광푸르지오점",
      "address": "부산 기장군 해빛로 39-32",
      "method": "auto",
      "lat": 35.26272,
      "lng": 129.22409
    },
    {
      "rank": 1,
      "name": "종로복권",
      "address": "인천 서구 검단로 519 종로문고",
      "method": "manual",
      "lat": 37.60376,
      "lng": 126.66156
    },
    {
      "rank": 1,
      "name": "로또랑 슈퍼랑",
      "address": "경기 고양시 일산동구 고양대로 739 1층 108호",
      "method": "auto",
      "lat": 37.682865,
      "lng": 126.77852
    },
    {
      "rank": 1,
      "name": "토큰박스",
      "address": "경기 남양주시 진건오남로 112-1 동양할인마트 앞 로또판매점",
      "method": "auto",
      "lat": 37.660786,
      "lng": 127.179695
    },
    {
      "rank": 1,
      "name": "북문복권방",
      "address": "경기 수원시 장안구 정조로 927-1",
      "method": "auto",
      "lat": 37.29028,
      "lng": 127.01279
    },
    {
      "rank": 1,
      "name": "지니로또복권방",
      "address": "경기 오산시 대호로 70",
      "method": "auto",
      "lat": 37.15661,
      "lng": 127.05448
    },
    {
      "rank": 1,
      "name": "행운복권방",
      "address": "경기 포천시 솔모루로 86-1",
      "method": "manual",
      "lat": 37.8288,
      "lng": 127.14748
    },
    {
      "rank": 1,
      "name": "서울로또방",
      "address": "충북 옥천군 삼금로 8",
      "method": "auto",
      "lat": 36.29949,
      "lng": 127.56668
    },
    {
      "rank": 1,
      "name": "로또복권",
      "address": "경남 창원시 의창구 원이대로69번길 24-4 1층 103호 태경동태탕",
      "method": "auto",
      "lat": 35.25772,
      "lng": 128.63771
    }
  ]
}