{
  "round": 1013,
  "date": "2022-04-30",
  "nums": [
    21,
    22,
    26,
    34,
    36,
    41
  ],
  "bonus": 32,
  "firstWinAmount": 5047570725,
  "firstWinners": 5,
  "totalSales": 101747653000,
  "prizes": {
    "first": {
      "amount": 5047570725,
      "winners": 5
    },
    "second": {
      "amount": 53244417,
      "winners": 79
    },
    "third": {
      "amount": 1626570,
      "winners": 2586
    },
    "fourth": {
      "amount": 50000,
      "winners": 128697
    },
    "fifth": {
      "amount": 5000,
      "winners": 2157701
    }
  },
  "methodCounts": {
    "auto": 5,
    "manual": 0,
    "mixed": 0
  },
  "topStores": [
    {
      "rank": 1,
      "name": "삼성마트",
      "address": "서울 강남구 선릉로 628",
      "method": "auto",
      "lat": 37.512646,
      "lng": 127.043304
    },
    {
      "rank": 1,
      "name": "스파",
      "address": "서울 노원구 동일로 1493 상계주공아파트(10단지) 주공10단지종합상가111",
      "method": "auto",
      "lat": 37.66166,
      "lng": 127.05787
    },
    {
      "rank": 1,
      "name": "가로가판대제57호(구)",
      "address": "서울 중구 세종대로14길 6-2",
      "method": "auto",
      "lat": 37.562904,
      "lng": 126.97705
    },
    {
      "rank": 1,
      "name": "부일카서비스",
      "address": "부산 동구 자성로133번길 35",
      "method": "auto",
      "lat": 35.140015,
      "lng": 129.06306
    },
    {
      "rank": 1,
      "name": "장원로또",
      "address": "경기 수원시 영통구 중부대로246번길 10 1층 3호",
      "method": "auto",
      "lat": 37.27466,
      "lng": 127.04233
    }
  ]
}