{
  "round": 1016,
  "date": "2022-05-21",
  "nums": [
    15,
    26,
    28,
    34,
    41,
    42
  ],
  "bonus": 44,
  "firstWinAmount": 2260660671,
  "firstWinners": 11,
  "totalSales": 101583153000,
  "prizes": {
    "first": {
      "amount": 2260660671,
      "winners": 11
    },
    "second": {
      "amount": 60949185,
      "winners": 68
    },
    "third": {
      "amount": 1543018,
      "winners": 2686
    },
    "fourth": {
      "amount": 50000,
      "winners": 132413
    },
    "fifth": {
      "amount": 5000,
      "winners": 2202914
    }
  },
  "methodCounts": {
    "auto": 10,
    "manual": 1,
    "mixed": 0
  },
  "topStores": [
    {
      "rank": 1,
      "name": "나눔로또 석촌점",
      "address": "서울 송파구 백제고분로27길  34 1층",
      "method": "manual",
      "lat": 37.50599,
      "lng": 127.09392
    },
    {
      "rank": 1,
      "name": "가판14호",
      "address": "서울 중구 퇴계로 37",
      "method": "auto",
      "lat": 37.557816,
      "lng": 126.97671
    },
    {
      "rank": 1,
      "name": "가판14호",
      "address": "서울 중구 퇴계로 37",
      "method": "auto",
      "lat": 37.557816,
      "lng": 126.97671
    },
    {
      "rank": 1,
      "name": "희망복권방",
      "address": "부산 동래구 명장로20번길 26,(명장동)",
      "method": "auto",
      "lat": 35.204823,
      "lng": 129.10197
    },
    {
      "rank": 1,
      "name": "운수대통",
      "address": "인천 부평구 동암광장로 6 1층 A호",
      "method": "auto",
      "lat": 37.470837,
      "lng": 126.70217
    },
    {
      "rank": 1,
      "name": "우두로또",
      "address": "강원 춘천시 영서로 2786 1층",
      "method": "auto",
      "lat": 37.901936,
      "lng": 127.72848
    },
    {
      "rank": 1,
      "name": "국영슈퍼",
      "address": "충남 아산시 시민로 366",
      "method": "auto",
      "lat": 36.781338,
      "lng": 127.00013
    },
    {
      "rank": 1,
      "name": "종합복권방",
      "address": "전남 해남군 해남로 34 종합복권방편의점",
      "method": "auto",
      "lat": 34.570763,
      "lng": 126.61092
    },
    {
      "rank": 1,
      "name": "고현시장만남의광장복권방",
      "address": "경남 거제시 거제중앙로19길 8 102호",
      "method": "auto",
      "lat": 34.885803,
      "lng": 128.62367
    },
    {
      "rank": 1,
      "name": "호박넝쿨복권방",
      "address": "경남 김해시 여래로20번길 50-7 103호",
      "method": "auto",
      "lat": 35.305355,
      "lng": 128.72906
    },
    {
      "rank": 1,
      "name": "지에스(GS25)뉴양산혜인점",
      "address": "경남 양산시 웅상대로 955 GS편의점",
      "method": "auto",
      "lat": 35.384914,
      "lng": 129.15508
    }
  ]
}