{
  "round": 1019,
  "date": "2022-06-11",
  "nums": [
    1,
    4,
    13,
    17,
    34,
    39
  ],
  "bonus": 6,
  "firstWinAmount": 438565140,
  "firstWinners": 50,
  "totalSales": 102804882000,
  "prizes": {
    "first": {
      "amount": 438565140,
      "winners": 50
    },
    "second": {
      "amount": 48729460,
      "winners": 75
    },
    "third": {
      "amount": 627634,
      "winners": 5823
    },
    "fourth": {
      "amount": 50000,
      "winners": 192646
    },
    "fifth": {
      "amount": 5000,
      "winners": 2506493
    }
  },
  "methodCounts": {
    "auto": 6,
    "manual": 42,
    "mixed": 0
  },
  "topStores": [
    {
      "rank": 1,
      "name": "미나식품(로또판매점)",
      "address": "서울 강서구 금낭화로 91-12",
      "method": "manual",
      "lat": 37.5735,
      "lng": 126.81066
    },
    {
      "rank": 1,
      "name": "장수복권",
      "address": "서울 관악구 난곡로 223 1층",
      "method": "manual",
      "lat": 37.47412,
      "lng": 126.91699
    },
    {
      "rank": 1,
      "name": "Today",
      "address": "서울 광진구 광나루로56길 85 테크노마트9층판매동24호",
      "method": "manual",
      "lat": 37.53569,
      "lng": 127.09574
    },
    {
      "rank": 1,
      "name": "종합가판점",
      "address": "서울 동대문구 왕산로40길 6 건물 앞쪽 가판점 청량리역 5번출구 앞쪽",
      "method": "manual",
      "lat": 37.579697,
      "lng": 127.04497
    },
    {
      "rank": 1,
      "name": "인터넷 복권판매사이트",
      "address": "동행복권(dhlottery.co.kr)",
      "method": "manual",
      "lat": 37.482063,
      "lng": 127.015785
    },
    {
      "rank": 1,
      "name": "인터넷 복권판매사이트",
      "address": "동행복권(dhlottery.co.kr)",
      "method": "manual",
      "lat": 37.482063,
      "lng": 127.015785
    },
    {
      "rank": 1,
      "name": "인터넷 복권판매사이트",
      "address": "동행복권(dhlottery.co.kr)",
      "method": "manual",
      "lat": 37.482063,
      "lng": 127.015785
    },
    {
      "rank": 1,
      "name": "인터넷 복권판매사이트",
      "address": "동행복권(dhlottery.co.kr)",
      "method": "manual",
      "lat": 37.482063,
      "lng": 127.015785
    },
    {
      "rank": 1,
      "name": "인터넷 복권판매사이트",
      "address": "동행복권(dhlottery.co.kr)",
      "method": "manual",
      "lat": 37.482063,
      "lng": 127.015785
    },
    {
      "rank": 1,
      "name": "인터넷 복권판매사이트",
      "address": "동행복권(dhlottery.co.kr)",
      "method": "manual",
      "lat": 37.482063,
      "lng": 127.015785
    },
    {
      "rank": 1,
      "name": "잠실매점",
      "address": "서울 송파구 올림픽로 269 잠실역 8번출구 앞 가판",
      "method": "manual",
      "lat": 37.514446,
      "lng": 127.10071
    },
    {
      "rank": 1,
      "name": "우리마트",
      "address": "서울 중구 창경궁로 11",
      "method": "manual",
      "lat": 37.563187,
      "lng": 126.99816
    },
    {
      "rank": 1,
      "name": "신간판",
      "address": "서울 중구 무교로 24",
      "method": "manual",
      "lat": 37.568092,
      "lng": 126.979454
    },
    {
      "rank": 1,
      "name": "빅세일복권방",
      "address": "부산 부산진구 서면문화로 6",
      "method": "manual",
      "lat": 35.158302,
      "lng": 129.05809
    },
    {
      "rank": 1,
      "name": "청솔서점",
      "address": "부산 사하구 하신번영로 195",
      "method": "manual",
      "lat": 35.098824,
      "lng": 128.95897
    },
    {
      "rank": 1,
      "name": "플러스로또",
      "address": "대구 달서구 월곡로45길 56,(상인동)",
      "method": "manual",
      "lat": 35.81329,
      "lng": 128.53883
    },
    {
      "rank": 1,
      "name": "로또명당",
      "address": "인천 남동구 호구포로 874",
      "method": "mixed",
      "lat": 37.460365,
      "lng": 126.720314
    },
    {
      "rank": 1,
      "name": "대박스타",
      "address": "인천 미추홀구 경인로 348 1층",
      "method": "manual",
      "lat": 37.458347,
      "lng": 126.678635
    },
    {
      "rank": 1,
      "name": "무판안경시청점",
      "address": "울산 남구 중앙로 210-1",
      "method": "manual",
      "lat": 35.53983,
      "lng": 129.31253
    },
    {
      "rank": 1,
      "name": "광명24시편의점",
      "address": "울산 동구 방어진순환도로 945",
      "method": "mixed",
      "lat": 35.525547,
      "lng": 129.4329
    },
    {
      "rank": 1,
      "name": "복권방",
      "address": "울산 울주군 덕남로 87",
      "method": "auto",
      "lat": 35.454807,
      "lng": 129.28966
    },
    {
      "rank": 1,
      "name": "경은 로또 판매점",
      "address": "울산 중구 태화로 37 1층",
      "method": "manual",
      "lat": 35.554806,
      "lng": 129.2803
    },
    {
      "rank": 1,
      "name": "다정로또복권",
      "address": "세종   다정중앙로 52",
      "method": "auto",
      "lat": 36.49494,
      "lng": 127.24923
    },
    {
      "rank": 1,
      "name": "대박복권판매점",
      "address": "경기 김포시 김포한강11로140번길 8-12 102호",
      "method": "manual",
      "lat": 37.646435,
      "lng": 126.68178
    },
    {
      "rank": 1,
      "name": "오남 로또택배",
      "address": "경기 남양주시 진건오남로 814 B동 1층 5호",
      "method": "manual",
      "lat": 37.69933,
      "lng": 127.20243
    },
    {
      "rank": 1,
      "name": "팡팡마트",
      "address": "경기 남양주시 진건오남로522번길 3 102호",
      "method": "manual",
      "lat": 37.6803,
      "lng": 127.21044
    },
    {
      "rank": 1,
      "name": "또와또복권",
      "address": "경기 성남시 수정구 수정로 215 왼쪽2호 (태평동)",
      "method": "manual",
      "lat": 37.44476,
      "lng": 127.143394
    },
    {
      "rank": 1,
      "name": "크로바쉼터",
      "address": "경기 성남시 수정구 대왕판교로 1289 1층 5호",
      "method": "manual",
      "lat": 37.45513,
      "lng": 127.10651
    },
    {
      "rank": 1,
      "name": "따따블 대박로또",
      "address": "경기 시흥시 서울대학로278번길 26 109호",
      "method": "manual",
      "lat": 37.368885,
      "lng": 126.72809
    },
    {
      "rank": 1,
      "name": "머니머니",
      "address": "경기 시흥시 월곶중앙로14번길 100",
      "method": "auto",
      "lat": 37.394455,
      "lng": 126.739426
    },
    {
      "rank": 1,
      "name": "로또복권",
      "address": "경기 오산시 성호새싹길 11",
      "method": "manual",
      "lat": 37.14982,
      "lng": 127.06984
    },
    {
      "rank": 1,
      "name": "대박로또",
      "address": "경기 용인시 기흥구 신갈로 32",
      "method": "auto",
      "lat": 37.269398,
      "lng": 127.10585
    },
    {
      "rank": 1,
      "name": "노다지복권방",
      "address": "경기 용인시 처인구 금령로 130",
      "method": "auto",
      "lat": 37.23509,
      "lng": 127.2105
    },
    {
      "rank": 1,
      "name": "행운복권방",
      "address": "경기 포천시 솔모루로 86-1",
      "method": "manual",
      "lat": 37.8288,
      "lng": 127.14748
    },
    {
      "rank": 1,
      "name": "서해로또방",
      "address": "경기 화성시 화성로 1471",
      "method": "manual",
      "lat": 37.223217,
      "lng": 126.84257
    },
    {
      "rank": 1,
      "name": "드림 복권방",
      "address": "경기 화성시 효행로 216 1층",
      "method": "manual",
      "lat": 37.228382,
      "lng": 126.970924
    },
    {
      "rank": 1,
      "name": "황금복권방",
      "address": "강원 인제군 인제로 232",
      "method": "manual",
      "lat": 38.070526,
      "lng": 128.17557
    },
    {
      "rank": 1,
      "name": "사내로또",
      "address": "강원 화천군 문화마을1길 113 1층",
      "method": "manual",
      "lat": 38.06776,
      "lng": 127.52292
    },
    {
      "rank": 1,
      "name": "행운복권방",
      "address": "충북 청주시 상당구 단재로 119,(영운동)",
      "method": "manual",
      "lat": 36.618725,
      "lng": 127.49801
    },
    {
      "rank": 1,
      "name": "행운복권방",
      "address": "충북 청주시 상당구 단재로 119,(영운동)",
      "method": "manual",
      "lat": 36.618725,
      "lng": 127.49801
    },
    {
      "rank": 1,
      "name": "로또매점",
      "address": "충남 당진시 송산로 723",
      "method": "manual",
      "lat": 36.953873,
      "lng": 126.68932
    },
    {
      "rank": 1,
      "name": "1등명당",
      "address": "충남 서천군 장항로 220",
      "method": "manual",
      "lat": 36.00986,
      "lng": 126.70148
    },
    {
      "rank": 1,
      "name": "1등명당",
      "address": "충남 서천군 장항로 220",
      "method": "manual",
      "lat": 36.00986,
      "lng": 126.70148
    },
    {
      "rank": 1,
      "name": "1등명당",
      "address": "충남 서천군 장항로 220",
      "method": "manual",
      "lat": 36.00986,
      "lng": 126.70148
    },
    {
      "rank": 1,
      "name": "남원복권방",
      "address": "전북 남원시 남문로 414",
      "method": "auto",
      "lat": 35.406384,
      "lng": 127.37658
    },
    {
      "rank": 1,
      "name": "대박찬스",
      "address": "전북 정읍시 관통로 59",
      "method": "manual",
      "lat": 35.561882,
      "lng": 126.85863
    },
    {
      "rank": 1,
      "name": "광양복권나라(로터리)",
      "address": "전남 광양시 백운로 1",
      "method": "manual",
      "lat": 34.971252,
      "lng": 127.58985
    },
    {
      "rank": 1,
      "name": "복받는날",
      "address": "경북 포항시 북구 삼흥로 64",
      "method": "manual",
      "lat": 36.06761,
      "lng": 129.37898
    },
    {
      "rank": 1,
      "name": "스마일",
      "address": "경남 양산시 북안남4길 2 복권판매점",
      "method": "manual",
      "lat": 35.34539,
      "lng": 129.0383
    },
    {
      "rank": 1,
      "name": "범어로또판매점",
      "address": "경남 양산시 목화로 52 좌측 복권판매점",
      "method": "manual",
      "lat": 35.331547,
      "lng": 129.0016
    }
  ]
}