{
  "round": 1022,
  "date": "2022-07-02",
  "nums": [
    5,
    6,
    11,
    29,
    42,
    45
  ],
  "bonus": 28,
  "firstWinAmount": 4866468075,
  "firstWinners": 5,
  "totalSales": 99233031000,
  "prizes": {
    "first": {
      "amount": 4866468075,
      "winners": 5
    },
    "second": {
      "amount": 64371271,
      "winners": 63
    },
    "third": {
      "amount": 1571857,
      "winners": 2580
    },
    "fourth": {
      "amount": 50000,
      "winners": 127962
    },
    "fifth": {
      "amount": 5000,
      "winners": 2155059
    }
  },
  "methodCounts": {
    "auto": 5,
    "manual": 0,
    "mixed": 0
  },
  "topStores": [
    {
      "rank": 1,
      "name": "복권백화점",
      "address": "경기 파주시 평화로 70",
      "method": "auto",
      "lat": 37.763588,
      "lng": 126.76989
    },
    {
      "rank": 1,
      "name": "규암복권판매점",
      "address": "충남 부여군 자온로 61",
      "method": "auto",
      "lat": 36.274117,
      "lng": 126.8867
    },
    {
      "rank": 1,
      "name": "씨유 목포세진점",
      "address": "전남 목포시 해안로249번길 17 CU편의점",
      "method": "auto",
      "lat": 34.787647,
      "lng": 126.38714
    },
    {
      "rank": 1,
      "name": "텀브커피왜관점 로또명당",
      "address": "경북 칠곡군 중앙로 95 1층 커피&로또명당",
      "method": "auto",
      "lat": 35.983677,
      "lng": 128.39816
    },
    {
      "rank": 1,
      "name": "포항오거리CU복권",
      "address": "경북 포항시 북구 죽도로 33 CU포항오거리점내",
      "method": "auto",
      "lat": 36.033836,
      "lng": 129.36467
    }
  ]
}