{
  "round": 1052,
  "date": "2023-01-28",
  "nums": [
    5,
    17,
    26,
    27,
    35,
    38
  ],
  "bonus": 1,
  "firstWinAmount": 2341682762,
  "firstWinners": 11,
  "totalSales": 107565461000,
  "prizes": {
    "first": {
      "amount": 2341682762,
      "winners": 11
    },
    "second": {
      "amount": 39750788,
      "winners": 108
    },
    "third": {
      "amount": 1467220,
      "winners": 2926
    },
    "fourth": {
      "amount": 50000,
      "winners": 148178
    },
    "fifth": {
      "amount": 5000,
      "winners": 2405830
    }
  },
  "methodCounts": {
    "auto": 5,
    "manual": 5,
    "mixed": 0
  },
  "topStores": [
    {
      "rank": 1,
      "name": "CU(수유대로점)",
      "address": "서울 강북구 노해로 121 두울빌딩",
      "method": "manual",
      "lat": 37.64605,
      "lng": 127.0244
    },
    {
      "rank": 1,
      "name": "로또방",
      "address": "서울 영등포구 영중로 12 에쉐르아이 시네마 쇼핑몰",
      "method": "auto",
      "lat": 37.517628,
      "lng": 126.90648
    },
    {
      "rank": 1,
      "name": "제일복권",
      "address": "부산 서구 충무대로255번길 9 충무쇼핑1층",
      "method": "auto",
      "lat": 35.093067,
      "lng": 129.02328
    },
    {
      "rank": 1,
      "name": "하프타임 과정로",
      "address": "부산 수영구 과정로 42,(망미동)",
      "method": "auto",
      "lat": 35.17517,
      "lng": 129.10776
    },
    {
      "rank": 1,
      "name": "장미유통",
      "address": "인천 계양구 아나지로 394",
      "method": "manual",
      "lat": 37.525383,
      "lng": 126.73586
    },
    {
      "rank": 1,
      "name": "프렌드24시",
      "address": "광주 광산구 첨단중앙로 164 빌리오네2  제1층 106호",
      "method": "manual",
      "lat": 35.219975,
      "lng": 126.84232
    },
    {
      "rank": 1,
      "name": "프렌드24시",
      "address": "광주 광산구 첨단중앙로 164 빌리오네2  제1층 106호",
      "method": "manual",
      "lat": 35.219975,
      "lng": 126.84232
    },
    {
      "rank": 1,
      "name": "프렌드24시",
      "address": "광주 광산구 첨단중앙로 164 빌리오네2  제1층 106호",
      "method": "manual",
      "lat": 35.219975,
      "lng": 126.84232
    },
    {
      "rank": 1,
      "name": "현대슈퍼",
      "address": "광주 서구 상무대로 871",
      "method": "mixed",
      "lat": 35.150524,
      "lng": 126.857315
    },
    {
      "rank": 1,
      "name": "복권방",
      "address": "대전 동구 대전로 799",
      "method": "auto",
      "lat": 36.330765,
      "lng": 127.432526
    },
    {
      "rank": 1,
      "name": "로또복권 하대점",
      "address": "경남 진주시 도동로 188",
      "method": "auto",
      "lat": 35.18703,
      "lng": 128.12248
    }
  ]
}