{
  "round": 1061,
  "date": "2023-04-01",
  "nums": [
    4,
    24,
    27,
    35,
    37,
    45
  ],
  "bonus": 15,
  "firstWinAmount": 2422768773,
  "firstWinners": 11,
  "totalSales": 109909344000,
  "prizes": {
    "first": {
      "amount": 2422768773,
      "winners": 11
    },
    "second": {
      "amount": 44866089,
      "winners": 99
    },
    "third": {
      "amount": 1479102,
      "winners": 3003
    },
    "fourth": {
      "amount": 50000,
      "winners": 145857
    },
    "fifth": {
      "amount": 5000,
      "winners": 2425576
    }
  },
  "methodCounts": {
    "auto": 4,
    "manual": 4,
    "mixed": 0
  },
  "topStores": [
    {
      "rank": 1,
      "name": "가로판매대",
      "address": "서울 강동구 올림픽로 648 천호역 3번 출구 앞(가판점)",
      "method": "auto",
      "lat": 37.538975,
      "lng": 127.12444
    },
    {
      "rank": 1,
      "name": "초대박 복권방",
      "address": "서울 강서구 곰달래로 184 1층 101호",
      "method": "mixed",
      "lat": 37.53099,
      "lng": 126.853386
    },
    {
      "rank": 1,
      "name": "씨유구로미래지오점",
      "address": "서울 구로구 디지털로32나길 17-45 1층",
      "method": "auto",
      "lat": 37.485157,
      "lng": 126.89951
    },
    {
      "rank": 1,
      "name": "태양 명당 복권방",
      "address": "서울 금천구 독산로 211 세진상가103호",
      "method": "manual",
      "lat": 37.46546,
      "lng": 126.90202
    },
    {
      "rank": 1,
      "name": "호야식품",
      "address": "서울 양천구 중앙로 234",
      "method": "manual",
      "lat": 37.51745,
      "lng": 126.85433
    },
    {
      "rank": 1,
      "name": "성광복권명당",
      "address": "부산 연제구 과정로 335",
      "method": "manual",
      "lat": 35.19,
      "lng": 129.0911
    },
    {
      "rank": 1,
      "name": "우리 커피",
      "address": "인천 남동구 백범로 67 상가동 105호",
      "method": "mixed",
      "lat": 37.451504,
      "lng": 126.738205
    },
    {
      "rank": 1,
      "name": "복권",
      "address": "경기 의정부시 태평로 75",
      "method": "auto",
      "lat": 37.739246,
      "lng": 127.05129
    },
    {
      "rank": 1,
      "name": "세븐일레븐화성봉담수기점",
      "address": "경기 화성시 세자로 358",
      "method": "auto",
      "lat": 37.197536,
      "lng": 126.98357
    },
    {
      "rank": 1,
      "name": "인제복권방",
      "address": "강원 인제군 비봉로 11-1",
      "method": "mixed",
      "lat": 38.068172,
      "lng": 128.17274
    },
    {
      "rank": 1,
      "name": "코리아25옥계점",
      "address": "경북 구미시 산호대로25길 18-4",
      "method": "manual",
      "lat": 36.138367,
      "lng": 128.41649
    }
  ]
}