{
  "round": 1070,
  "date": "2023-06-03",
  "nums": [
    3,
    6,
    14,
    22,
    30,
    41
  ],
  "bonus": 36,
  "firstWinAmount": 1859116929,
  "firstWinners": 14,
  "totalSales": 107222802000,
  "prizes": {
    "first": {
      "amount": 1859116929,
      "winners": 14
    },
    "second": {
      "amount": 68856183,
      "winners": 63
    },
    "third": {
      "amount": 1476495,
      "winners": 2938
    },
    "fourth": {
      "amount": 50000,
      "winners": 142759
    },
    "fifth": {
      "amount": 5000,
      "winners": 2353987
    }
  },
  "methodCounts": {
    "auto": 12,
    "manual": 2,
    "mixed": 0
  },
  "topStores": [
    {
      "rank": 1,
      "name": "복권나라",
      "address": "서울 관악구 남부순환로 1739-9",
      "method": "manual",
      "lat": 37.482788,
      "lng": 126.943474
    },
    {
      "rank": 1,
      "name": "세븐일레븐 가야한신점",
      "address": "부산 부산진구 가야대로589번길 3 1층",
      "method": "auto",
      "lat": 35.155087,
      "lng": 129.03636
    },
    {
      "rank": 1,
      "name": "황금코끼리로또점",
      "address": "부산 북구 금곡대로 318",
      "method": "auto",
      "lat": 35.236713,
      "lng": 129.01416
    },
    {
      "rank": 1,
      "name": "복드림 복권방",
      "address": "부산 북구 기찰로 155 (덕천동)",
      "method": "auto",
      "lat": 35.214546,
      "lng": 129.02159
    },
    {
      "rank": 1,
      "name": "나나복권",
      "address": "부산 영도구 남항로 22 1층",
      "method": "manual",
      "lat": 35.089283,
      "lng": 129.03883
    },
    {
      "rank": 1,
      "name": "세진전자통신",
      "address": "대구 서구 서대구로 156",
      "method": "auto",
      "lat": 35.8719,
      "lng": 128.5552
    },
    {
      "rank": 1,
      "name": "성진마트",
      "address": "경기 부천시 수도로 123,(내동)",
      "method": "auto",
      "lat": 37.516987,
      "lng": 126.77924
    },
    {
      "rank": 1,
      "name": "일등로또판매점",
      "address": "경기 파주시 교하로 1417",
      "method": "auto",
      "lat": 37.752476,
      "lng": 126.74827
    },
    {
      "rank": 1,
      "name": "잘찍어로또방",
      "address": "경기 평택시 안현로서5길 62",
      "method": "auto",
      "lat": 36.988426,
      "lng": 126.92788
    },
    {
      "rank": 1,
      "name": "행복",
      "address": "경기 하남시 덕풍동로 111-21 105호",
      "method": "auto",
      "lat": 37.5518,
      "lng": 127.20767
    },
    {
      "rank": 1,
      "name": "대박로또방",
      "address": "전북 장수군 장천로 170",
      "method": "auto",
      "lat": 35.647224,
      "lng": 127.5186
    },
    {
      "rank": 1,
      "name": "왕대박 나눔로또645",
      "address": "경북 경주시 금성로 334 1층 중앙점포",
      "method": "auto",
      "lat": 35.84728,
      "lng": 129.20715
    },
    {
      "rank": 1,
      "name": "진양상회",
      "address": "경북 영주시 선비로 68",
      "method": "auto",
      "lat": 36.811275,
      "lng": 128.62402
    },
    {
      "rank": 1,
      "name": "무지개로또복권",
      "address": "경남 양산시 덕계2길 17 좌측 복권판매점",
      "method": "auto",
      "lat": 35.37062,
      "lng": 129.14658
    }
  ]
}