{
  "round": 1085,
  "date": "2023-09-16",
  "nums": [
    4,
    7,
    17,
    18,
    38,
    44
  ],
  "bonus": 36,
  "firstWinAmount": 1073277473,
  "firstWinners": 23,
  "totalSales": 106249975000,
  "prizes": {
    "first": {
      "amount": 1073277473,
      "winners": 23
    },
    "second": {
      "amount": 51427879,
      "winners": 80
    },
    "third": {
      "amount": 1185316,
      "winners": 3471
    },
    "fourth": {
      "amount": 50000,
      "winners": 156670
    },
    "fifth": {
      "amount": 5000,
      "winners": 2475529
    }
  },
  "methodCounts": {
    "auto": 14,
    "manual": 8,
    "mixed": 0
  },
  "topStores": [
    {
      "rank": 1,
      "name": "복권마을(사당점)",
      "address": "서울 동작구 사당로 215 101호",
      "method": "auto",
      "lat": 37.48449,
      "lng": 126.972046
    },
    {
      "rank": 1,
      "name": "에스비 상사",
      "address": "서울 중구 퇴계로86길 29 1층",
      "method": "auto",
      "lat": 37.564255,
      "lng": 127.019806
    },
    {
      "rank": 1,
      "name": "행운복권방",
      "address": "부산 사상구 모라로 90-7",
      "method": "auto",
      "lat": 35.18631,
      "lng": 128.98962
    },
    {
      "rank": 1,
      "name": "로또공인중개사사무소",
      "address": "대구 중구 대봉로 212 1층 공인중개사사무소",
      "method": "auto",
      "lat": 35.857677,
      "lng": 128.60196
    },
    {
      "rank": 1,
      "name": "당하복권명당",
      "address": "인천 서구 서곶로 788",
      "method": "manual",
      "lat": 37.587936,
      "lng": 126.67538
    },
    {
      "rank": 1,
      "name": "우타코비",
      "address": "인천 서구 승학로 470 1층 105호",
      "method": "manual",
      "lat": 37.56361,
      "lng": 126.673615
    },
    {
      "rank": 1,
      "name": "삼성로또",
      "address": "인천 연수구 학나래로6번길 56",
      "method": "auto",
      "lat": 37.42539,
      "lng": 126.69818
    },
    {
      "rank": 1,
      "name": "1등로또방",
      "address": "광주 동구 중앙로 249-2",
      "method": "auto",
      "lat": 35.15431,
      "lng": 126.92017
    },
    {
      "rank": 1,
      "name": "영화복권(버들점)",
      "address": "광주 서구 상무버들로 32",
      "method": "auto",
      "lat": 35.164616,
      "lng": 126.86002
    },
    {
      "rank": 1,
      "name": "로또대박",
      "address": "세종  장척로 571",
      "method": "manual",
      "lat": 37.499294,
      "lng": 127.22131
    },
    {
      "rank": 1,
      "name": "로또대박",
      "address": "세종  장척로 571",
      "method": "manual",
      "lat": 37.499294,
      "lng": 127.22131
    },
    {
      "rank": 1,
      "name": "행운드림로또&토토",
      "address": "경기 김포시 초당로16번길 77 1층 106호",
      "method": "manual",
      "lat": 37.63979,
      "lng": 126.67515
    },
    {
      "rank": 1,
      "name": "삐삐문구",
      "address": "경기 남양주시 사릉로 403",
      "method": "mixed",
      "lat": 37.656082,
      "lng": 127.17968
    },
    {
      "rank": 1,
      "name": "또와복권",
      "address": "경기 수원시 권선구 구운로 46-1 1층 103호",
      "method": "manual",
      "lat": 37.27603,
      "lng": 127.02496
    },
    {
      "rank": 1,
      "name": "대박 로또",
      "address": "경기 수원시 장안구 수성로261번길 81 신협 1층(정자동)",
      "method": "auto",
      "lat": 37.29295,
      "lng": 126.99854
    },
    {
      "rank": 1,
      "name": "예원로또복권판매점",
      "address": "경기 안양시 만안구 만안로 461 제1호",
      "method": "auto",
      "lat": 37.4186,
      "lng": 126.90874
    },
    {
      "rank": 1,
      "name": "로또휴게실",
      "address": "경기 용인시 기흥구 용구대로 1885",
      "method": "auto",
      "lat": 37.256386,
      "lng": 127.10432
    },
    {
      "rank": 1,
      "name": "행복로또판매점",
      "address": "경기 의정부시 오목로 219 106호",
      "method": "manual",
      "lat": 37.745884,
      "lng": 127.09935
    },
    {
      "rank": 1,
      "name": "럭키 복권방",
      "address": "경기 의정부시 의정로22번길 29 1층(의정부동)",
      "method": "auto",
      "lat": 37.734978,
      "lng": 127.0366
    },
    {
      "rank": 1,
      "name": "행복로또판매점",
      "address": "경기 의정부시 오목로 219 106호",
      "method": "manual",
      "lat": 37.745884,
      "lng": 127.09935
    },
    {
      "rank": 1,
      "name": "복터졌다 복권방",
      "address": "충남 아산시 온천대로 1510-10",
      "method": "auto",
      "lat": 36.78049,
      "lng": 127.005264
    },
    {
      "rank": 1,
      "name": "로또복권두정점",
      "address": "충남 천안시 서북구 두정로 251 대원빌딩104호",
      "method": "auto",
      "lat": 36.833515,
      "lng": 127.14499
    },
    {
      "rank": 1,
      "name": "천하명당복권방",
      "address": "경북 포항시 남구 중섬로 26",
      "method": "auto",
      "lat": 36.013783,
      "lng": 129.34744
    }
  ]
}