{
  "round": 1089,
  "date": "2023-10-14",
  "nums": [
    4,
    18,
    31,
    37,
    42,
    43
  ],
  "bonus": 40,
  "firstWinAmount": 2978522167,
  "firstWinners": 9,
  "totalSales": 108725932000,
  "prizes": {
    "first": {
      "amount": 2978522167,
      "winners": 9
    },
    "second": {
      "amount": 56554219,
      "winners": 79
    },
    "third": {
      "amount": 1581517,
      "winners": 2825
    },
    "fourth": {
      "amount": 50000,
      "winners": 138575
    },
    "fifth": {
      "amount": 5000,
      "winners": 2338390
    }
  },
  "methodCounts": {
    "auto": 6,
    "manual": 3,
    "mixed": 0
  },
  "topStores": [
    {
      "rank": 1,
      "name": "돈벼락맞는곳",
      "address": "부산 기장군 읍내로 109",
      "method": "manual",
      "lat": 35.24525,
      "lng": 129.21635
    },
    {
      "rank": 1,
      "name": "황금복권방",
      "address": "부산 부산진구 가야대로 613 상가동1층114호",
      "method": "auto",
      "lat": 35.155704,
      "lng": 129.03911
    },
    {
      "rank": 1,
      "name": "대산슈퍼",
      "address": "부산 북구 만덕대로 166",
      "method": "auto",
      "lat": 35.21297,
      "lng": 129.02286
    },
    {
      "rank": 1,
      "name": "행복드림로또판매점",
      "address": "인천 강화군 중앙로 68 1층 101-1호 하나로마트",
      "method": "manual",
      "lat": 37.737663,
      "lng": 126.48689
    },
    {
      "rank": 1,
      "name": "행운 마트",
      "address": "인천 남동구 만수로 65",
      "method": "auto",
      "lat": 37.461594,
      "lng": 126.73509
    },
    {
      "rank": 1,
      "name": "대한유통",
      "address": "울산 북구 박상진11로 1 1층112호",
      "method": "auto",
      "lat": 35.60049,
      "lng": 129.36484
    },
    {
      "rank": 1,
      "name": "광교호수공원 복권명당점",
      "address": "경기 수원시 영통구 광교호수공원로 20 1층 114호(원천동, 더샵 광교레이크시티)",
      "method": "manual",
      "lat": 37.2725,
      "lng": 126.05974
    },
    {
      "rank": 1,
      "name": "세븐일레븐 화성봉담대로점",
      "address": "경기 화성시 삼천병마로 894-4 1층",
      "method": "auto",
      "lat": 37.187534,
      "lng": 126.93869
    },
    {
      "rank": 1,
      "name": "자수정슈퍼",
      "address": "전북 전주시 완산구 용머리로 152",
      "method": "auto",
      "lat": 35.805733,
      "lng": 127.12693
    }
  ]
}