{
  "round": 1091,
  "date": "2023-10-28",
  "nums": [
    6,
    20,
    23,
    24,
    28,
    30
  ],
  "bonus": 44,
  "firstWinAmount": 2898470459,
  "firstWinners": 9,
  "totalSales": 109335581000,
  "prizes": {
    "first": {
      "amount": 2898470459,
      "winners": 9
    },
    "second": {
      "amount": 66887780,
      "winners": 65
    },
    "third": {
      "amount": 1513299,
      "winners": 2873
    },
    "fourth": {
      "amount": 50000,
      "winners": 149578
    },
    "fifth": {
      "amount": 5000,
      "winners": 2481449
    }
  },
  "methodCounts": {
    "auto": 9,
    "manual": 0,
    "mixed": 0
  },
  "topStores": [
    {
      "rank": 1,
      "name": "광산마트",
      "address": "서울 강북구 한천로 1078-1",
      "method": "auto",
      "lat": 37.64259,
      "lng": 127.02353
    },
    {
      "rank": 1,
      "name": "행운복권방",
      "address": "서울 서대문구 신촌로 235-1",
      "method": "auto",
      "lat": 37.557384,
      "lng": 126.95227
    },
    {
      "rank": 1,
      "name": "쌍둥이네 로또판매점",
      "address": "서울 양천구 화곡로 41 1층",
      "method": "auto",
      "lat": 37.53952,
      "lng": 126.8266
    },
    {
      "rank": 1,
      "name": "진우복권",
      "address": "부산 연제구 월드컵대로 119 204호(연산동)",
      "method": "auto",
      "lat": 35.184826,
      "lng": 129.08208
    },
    {
      "rank": 1,
      "name": "일등복권방",
      "address": "인천 계양구 임학동로 12 1층",
      "method": "auto",
      "lat": 37.543873,
      "lng": 126.7346
    },
    {
      "rank": 1,
      "name": "가야홀인원복권방",
      "address": "경기 의정부시 체육로 306-14,(녹양동)",
      "method": "auto",
      "lat": 37.760475,
      "lng": 127.04132
    },
    {
      "rank": 1,
      "name": "로또하복대두진점",
      "address": "충북 청주시 흥덕구 증안로 33 두진백로상가1층102호",
      "method": "auto",
      "lat": 36.63738,
      "lng": 127.426926
    },
    {
      "rank": 1,
      "name": "문경로또",
      "address": "경북 문경시 문희로 19-1",
      "method": "auto",
      "lat": 36.734093,
      "lng": 128.10844
    },
    {
      "rank": 1,
      "name": "행운의집제1호점",
      "address": "경북 안동시 영가로 24",
      "method": "auto",
      "lat": 36.56516,
      "lng": 128.7333
    }
  ]
}