{
  "round": 1093,
  "date": "2023-11-11",
  "nums": [
    10,
    17,
    22,
    30,
    35,
    43
  ],
  "bonus": 44,
  "firstWinAmount": 1967040750,
  "firstWinners": 13,
  "totalSales": 105589036000,
  "prizes": {
    "first": {
      "amount": 1967040750,
      "winners": 13
    },
    "second": {
      "amount": 65568025,
      "winners": 65
    },
    "third": {
      "amount": 1455575,
      "winners": 2928
    },
    "fourth": {
      "amount": 50000,
      "winners": 141232
    },
    "fifth": {
      "amount": 5000,
      "winners": 2327509
    }
  },
  "methodCounts": {
    "auto": 9,
    "manual": 1,
    "mixed": 0
  },
  "topStores": [
    {
      "rank": 1,
      "name": "피터팬",
      "address": "서울 은평구 은평로 193",
      "method": "auto",
      "lat": 37.601765,
      "lng": 126.929115
    },
    {
      "rank": 1,
      "name": "일등복권편의점",
      "address": "대구 달서구 대명천로 220 1층",
      "method": "auto",
      "lat": 35.84214,
      "lng": 128.53621
    },
    {
      "rank": 1,
      "name": "세진전자통신",
      "address": "대구 서구 서대구로 156",
      "method": "auto",
      "lat": 35.8719,
      "lng": 128.5552
    },
    {
      "rank": 1,
      "name": "메트로센터점",
      "address": "대구 중구 달구벌대로 지하 2100 메트로센터C412호",
      "method": "auto",
      "lat": 35.86582,
      "lng": 128.59314
    },
    {
      "rank": 1,
      "name": "교통카드충전소",
      "address": "경기 고양시 덕양구 화정로 지하 60 화정역 2번출구",
      "method": "manual",
      "lat": 37.634552,
      "lng": 126.83321
    },
    {
      "rank": 1,
      "name": "초월대박복권방",
      "address": "경기 광주시 경충대로 1252",
      "method": "auto",
      "lat": 37.386677,
      "lng": 127.28821
    },
    {
      "rank": 1,
      "name": "둘리복권방",
      "address": "경기 시흥시 중심상가2길 12-6 한강프라자제1층101호",
      "method": "auto",
      "lat": 37.345314,
      "lng": 126.73626
    },
    {
      "rank": 1,
      "name": "안성맞춤",
      "address": "경기 안성시 안성맞춤대로 1099-1",
      "method": "mixed",
      "lat": 37.01107,
      "lng": 127.2699
    },
    {
      "rank": 1,
      "name": "행운복권방",
      "address": "경기 의정부시 충의로 55",
      "method": "mixed",
      "lat": 37.73674,
      "lng": 127.08712
    },
    {
      "rank": 1,
      "name": "행운복권방",
      "address": "경기 의정부시 충의로 55",
      "method": "auto",
      "lat": 37.73674,
      "lng": 127.08712
    },
    {
      "rank": 1,
      "name": "대흥복권",
      "address": "경기 화성시 행정서로3길 4-46 101호",
      "method": "auto",
      "lat": 37.130062,
      "lng": 126.91723
    },
    {
      "rank": 1,
      "name": "떴다GO 1등",
      "address": "경기 화성시 동탄반석로 172 1층 138호(동탄 파라곤점)",
      "method": "auto",
      "lat": 37.20413,
      "lng": 127.07133
    },
    {
      "rank": 1,
      "name": "금전산복권방",
      "address": "전남 순천시 연향1로 17-1 금전산복권방",
      "method": "mixed",
      "lat": 34.945038,
      "lng": 127.51636
    }
  ]
}