{
  "round": 1137,
  "date": "2024-09-14",
  "nums": [
    4,
    9,
    12,
    15,
    33,
    45
  ],
  "bonus": 26,
  "firstWinAmount": 2023447688,
  "firstWinners": 14,
  "totalSales": 119250007000,
  "prizes": {
    "first": {
      "amount": 2023447688,
      "winners": 14
    },
    "second": {
      "amount": 42534937,
      "winners": 111
    },
    "third": {
      "amount": 1420818,
      "winners": 3323
    },
    "fourth": {
      "amount": 50000,
      "winners": 163296
    },
    "fifth": {
      "amount": 5000,
      "winners": 2737836
    }
  },
  "methodCounts": {
    "auto": 9,
    "manual": 4,
    "mixed": 0
  },
  "topStores": [
    {
      "rank": 1,
      "name": "옥수역복권방",
      "address": "서울 성동구 한림말길 49",
      "method": "manual",
      "lat": 37.54156,
      "lng": 127.016594
    },
    {
      "rank": 1,
      "name": "대왕로또",
      "address": "부산 영도구 남항로 35",
      "method": "auto",
      "lat": 35.088993,
      "lng": 129.04027
    },
    {
      "rank": 1,
      "name": "훼미리마트영도모닝점",
      "address": "부산 영도구 태종로100번길 3",
      "method": "auto",
      "lat": 35.091187,
      "lng": 129.04182
    },
    {
      "rank": 1,
      "name": "소래복권",
      "address": "인천 남동구 앵고개로934번길 5",
      "method": "manual",
      "lat": 37.401836,
      "lng": 126.735115
    },
    {
      "rank": 1,
      "name": "노다지천국",
      "address": "인천 미추홀구 인주대로 185 1층1호",
      "method": "auto",
      "lat": 37.455578,
      "lng": 126.65764
    },
    {
      "rank": 1,
      "name": "굿샷",
      "address": "경기 고양시 일산동구 위시티로 49 104호",
      "method": "auto",
      "lat": 37.67672,
      "lng": 126.809845
    },
    {
      "rank": 1,
      "name": "대박",
      "address": "경기 구리시 안골로103번길 46",
      "method": "auto",
      "lat": 37.599422,
      "lng": 127.14154
    },
    {
      "rank": 1,
      "name": "패밀리복권방",
      "address": "경기 남양주시 늘을1로16번길 29 늘봄타워 107호",
      "method": "auto",
      "lat": 37.654083,
      "lng": 127.243324
    },
    {
      "rank": 1,
      "name": "퍼스트",
      "address": "경기 성남시 수정구 산성대로 523 1층",
      "method": "mixed",
      "lat": 37.457905,
      "lng": 127.163635
    },
    {
      "rank": 1,
      "name": "성원 복권방",
      "address": "강원 인제군 원통로 169",
      "method": "auto",
      "lat": 38.12235,
      "lng": 128.20317
    },
    {
      "rank": 1,
      "name": "로또명당금왕점",
      "address": "충북 음성군 탑골길 55 세븐일레븐 금왕점",
      "method": "manual",
      "lat": 36.990955,
      "lng": 127.58632
    },
    {
      "rank": 1,
      "name": "로또명당해미점",
      "address": "충남 서산시 남문2로 108",
      "method": "auto",
      "lat": 36.71344,
      "lng": 126.54419
    },
    {
      "rank": 1,
      "name": "대산슈퍼",
      "address": "충남 천안시 동남구 복구정3길 1",
      "method": "manual",
      "lat": 36.76989,
      "lng": 127.250206
    },
    {
      "rank": 1,
      "name": "복권명당",
      "address": "경북 경산시 경안로 214",
      "method": "auto",
      "lat": 35.82663,
      "lng": 128.73682
    }
  ]
}