{
  "round": 1138,
  "date": "2024-09-21",
  "nums": [
    14,
    16,
    19,
    20,
    29,
    34
  ],
  "bonus": 35,
  "firstWinAmount": 1902656786,
  "firstWinners": 14,
  "totalSales": 109651510000,
  "prizes": {
    "first": {
      "amount": 1902656786,
      "winners": 14
    },
    "second": {
      "amount": 88790650,
      "winners": 50
    },
    "third": {
      "amount": 1549576,
      "winners": 2865
    },
    "fourth": {
      "amount": 50000,
      "winners": 145690
    },
    "fifth": {
      "amount": 5000,
      "winners": 2404999
    }
  },
  "methodCounts": {
    "auto": 8,
    "manual": 6,
    "mixed": 0
  },
  "topStores": [
    {
      "rank": 1,
      "name": "태릉시장복권방",
      "address": "서울 중랑구 중랑역로 47",
      "method": "manual",
      "lat": 37.598118,
      "lng": 127.07667
    },
    {
      "rank": 1,
      "name": "신흥엑스포쇼핑",
      "address": "인천 서구 가석로156번길 20",
      "method": "auto",
      "lat": 37.49705,
      "lng": 126.67706
    },
    {
      "rank": 1,
      "name": "1등 복권방",
      "address": "대전 중구 대종로 49",
      "method": "manual",
      "lat": 36.297623,
      "lng": 127.455284
    },
    {
      "rank": 1,
      "name": "황금도깨비",
      "address": "세종   한누리대로 321 103호",
      "method": "auto",
      "lat": 36.49301,
      "lng": 127.25578
    },
    {
      "rank": 1,
      "name": "광민 노다지 복권방",
      "address": "경기 광명시 하안로287번길 9 제1층 7호(하안동, 대하빌딩)",
      "method": "auto",
      "lat": 37.460873,
      "lng": 126.87975
    },
    {
      "rank": 1,
      "name": "복권만당",
      "address": "경기 군포시 군포로 489-2",
      "method": "manual",
      "lat": 37.350185,
      "lng": 126.944145
    },
    {
      "rank": 1,
      "name": "행운",
      "address": "경기 남양주시 비룡로 793",
      "method": "auto",
      "lat": 37.70848,
      "lng": 127.32261
    },
    {
      "rank": 1,
      "name": "민복권",
      "address": "경기 동두천시 지행로 96-14 1층(지행동)",
      "method": "auto",
      "lat": 37.8923,
      "lng": 127.05871
    },
    {
      "rank": 1,
      "name": "좋은날",
      "address": "경기 부천시 역곡로490번길 27 101호",
      "method": "manual",
      "lat": 37.52829,
      "lng": 126.81764
    },
    {
      "rank": 1,
      "name": "용인로또복권방",
      "address": "경기 용인시 처인구 백옥대로 2076-1",
      "method": "auto",
      "lat": 37.31023,
      "lng": 127.24057
    },
    {
      "rank": 1,
      "name": "중앙로또",
      "address": "강원 양구군 장터길 27 1층 중앙청과",
      "method": "manual",
      "lat": 38.103436,
      "lng": 127.989944
    },
    {
      "rank": 1,
      "name": "그린로또",
      "address": "강원 양양군 양양로 71",
      "method": "manual",
      "lat": 38.07482,
      "lng": 128.62141
    },
    {
      "rank": 1,
      "name": "행운로또",
      "address": "강원 춘천시 금강로 81 신한은행강원영업부지점앞 가판",
      "method": "auto",
      "lat": 37.87633,
      "lng": 127.73171
    },
    {
      "rank": 1,
      "name": "알리바이(나주점)",
      "address": "전남 나주시 나주로 142 알리바이",
      "method": "auto",
      "lat": 35.031338,
      "lng": 126.71719
    }
  ]
}