{
  "round": 1142,
  "date": "2024-10-19",
  "nums": [
    2,
    8,
    28,
    30,
    37,
    41
  ],
  "bonus": 22,
  "firstWinAmount": 3117517709,
  "firstWinners": 9,
  "totalSales": 114254355000,
  "prizes": {
    "first": {
      "amount": 3117517709,
      "winners": 9
    },
    "second": {
      "amount": 69795173,
      "winners": 67
    },
    "third": {
      "amount": 1645997,
      "winners": 2841
    },
    "fourth": {
      "amount": 50000,
      "winners": 146936
    },
    "fifth": {
      "amount": 5000,
      "winners": 2474033
    }
  },
  "methodCounts": {
    "auto": 8,
    "manual": 1,
    "mixed": 0
  },
  "topStores": [
    {
      "rank": 1,
      "name": "복권나라",
      "address": "서울 관악구 은천로 40-1",
      "method": "auto",
      "lat": 37.48599,
      "lng": 126.93982
    },
    {
      "rank": 1,
      "name": "부일카서비스",
      "address": "부산 동구 자성로133번길 35",
      "method": "auto",
      "lat": 35.140015,
      "lng": 129.06306
    },
    {
      "rank": 1,
      "name": "세러데이 845",
      "address": "광주 광산구 첨단중앙로182번길 90 상가동 1층 129호(첨단대라수어썸시티)",
      "method": "manual",
      "lat": 35.221333,
      "lng": 126.85135
    },
    {
      "rank": 1,
      "name": "로또명당반곡점",
      "address": "세종   한누리대로 1821 수루배마을5단지 상가 114호",
      "method": "auto",
      "lat": 36.49743,
      "lng": 127.312386
    },
    {
      "rank": 1,
      "name": "이마트24 일산덕이점",
      "address": "경기 고양시 일산서구 미래로 164",
      "method": "auto",
      "lat": 37.69311,
      "lng": 126.74687
    },
    {
      "rank": 1,
      "name": "행운로또",
      "address": "경기 김포시 약암로 911",
      "method": "auto",
      "lat": 37.635002,
      "lng": 126.55378
    },
    {
      "rank": 1,
      "name": "예스복권방",
      "address": "경기 남양주시 별내중앙로 56 메인프라자 1층 105호",
      "method": "auto",
      "lat": 37.647552,
      "lng": 127.12371
    },
    {
      "rank": 1,
      "name": "대길복권",
      "address": "경기 수원시 장안구 서부로 2129-1 1층 (율전동)",
      "method": "auto",
      "lat": 37.298744,
      "lng": 126.971306
    },
    {
      "rank": 1,
      "name": "25시슈퍼",
      "address": "경기 시흥시 함송로14번길 13-17 홍익프라자1층107호",
      "method": "auto",
      "lat": 37.362453,
      "lng": 126.72994
    }
  ]
}