{
  "round": 1146,
  "date": "2024-11-16",
  "nums": [
    6,
    11,
    17,
    19,
    40,
    43
  ],
  "bonus": 28,
  "firstWinAmount": 2526476353,
  "firstWinners": 11,
  "totalSales": 116694743000,
  "prizes": {
    "first": {
      "amount": 2526476353,
      "winners": 11
    },
    "second": {
      "amount": 64331574,
      "winners": 72
    },
    "third": {
      "amount": 1528672,
      "winners": 3030
    },
    "fourth": {
      "amount": 50000,
      "winners": 158146
    },
    "fifth": {
      "amount": 5000,
      "winners": 2677017
    }
  },
  "methodCounts": {
    "auto": 8,
    "manual": 2,
    "mixed": 0
  },
  "topStores": [
    {
      "rank": 1,
      "name": "로또 천왕점",
      "address": "서울 구로구 오리로 1097-7 (천왕동)",
      "method": "auto",
      "lat": 37.48274,
      "lng": 126.84239
    },
    {
      "rank": 1,
      "name": "스파",
      "address": "서울 노원구 동일로 1493 주공10단지종합상가111",
      "method": "manual",
      "lat": 37.66166,
      "lng": 127.05787
    },
    {
      "rank": 1,
      "name": "민영슈퍼",
      "address": "서울 서대문구 응암로 104",
      "method": "auto",
      "lat": 37.581757,
      "lng": 126.91303
    },
    {
      "rank": 1,
      "name": "새상무복권",
      "address": "광주 서구 치평로 30 수암빌딩 1층 102호",
      "method": "auto",
      "lat": 35.149944,
      "lng": 126.84769
    },
    {
      "rank": 1,
      "name": "안성휴게소 복권판매점(부산방향)",
      "address": "경기 안성시 경부고속도로 365 안성휴게소 하행선 내",
      "method": "auto",
      "lat": 37.013092,
      "lng": 127.145065
    },
    {
      "rank": 1,
      "name": "비엠복권",
      "address": "충북 청주시 흥덕구 대신로 108",
      "method": "auto",
      "lat": 36.642586,
      "lng": 127.43548
    },
    {
      "rank": 1,
      "name": "행운복권방",
      "address": "충남 천안시 서북구 불당대로 269 1층 121호",
      "method": "mixed",
      "lat": 36.800297,
      "lng": 127.12592
    },
    {
      "rank": 1,
      "name": "명품복권방",
      "address": "전남 목포시 섶나루길 122 상가 1,2,3호",
      "method": "auto",
      "lat": 34.81054,
      "lng": 126.41894
    },
    {
      "rank": 1,
      "name": "영광믿음복권",
      "address": "전남 영광군 신남로 169 1층 101호",
      "method": "auto",
      "lat": 35.276104,
      "lng": 126.50059
    },
    {
      "rank": 1,
      "name": "씨유 (CU) 거창대동점",
      "address": "경남 거창군 거창대로 93",
      "method": "auto",
      "lat": 35.689865,
      "lng": 127.91475
    },
    {
      "rank": 1,
      "name": "북마산복권전문점",
      "address": "경남 창원시 마산합포구 북성로 98",
      "method": "manual",
      "lat": 35.215973,
      "lng": 128.5708
    }
  ]
}