{
  "round": 1153,
  "date": "2025-01-04",
  "nums": [
    1,
    9,
    10,
    13,
    35,
    44
  ],
  "bonus": 5,
  "firstWinAmount": 2027312925,
  "firstWinners": 15,
  "totalSales": 126343367000,
  "prizes": {
    "first": {
      "amount": 2027312925,
      "winners": 15
    },
    "second": {
      "amount": 64155473,
      "winners": 79
    },
    "third": {
      "amount": 1445603,
      "winners": 3506
    },
    "fourth": {
      "amount": 50000,
      "winners": 167692
    },
    "fifth": {
      "amount": 5000,
      "winners": 2848165
    }
  },
  "methodCounts": {
    "auto": 11,
    "manual": 4,
    "mixed": 0
  },
  "topStores": [
    {
      "rank": 1,
      "name": "명당마트",
      "address": "서울 강서구 양천로 91",
      "method": "manual",
      "lat": 37.573605,
      "lng": 126.81405
    },
    {
      "rank": 1,
      "name": "종로3가1호선역2번출구가로판매점82호",
      "address": "서울 종로구 돈화문로 23 가판",
      "method": "auto",
      "lat": 37.5707,
      "lng": 126.991875
    },
    {
      "rank": 1,
      "name": "롯데무역",
      "address": "부산 영도구 꿈나무길 197 1층 복권방",
      "method": "auto",
      "lat": 35.087284,
      "lng": 129.04375
    },
    {
      "rank": 1,
      "name": "다다복권방",
      "address": "대구 달서구 월배로 32-1 1층 복권방",
      "method": "manual",
      "lat": 35.812386,
      "lng": 128.51874
    },
    {
      "rank": 1,
      "name": "금산홍삼 복권판매점",
      "address": "대전 동구 보문로 4 101호",
      "method": "manual",
      "lat": 36.315372,
      "lng": 127.44009
    },
    {
      "rank": 1,
      "name": "한국슈퍼",
      "address": "경기 부천시 원종로35번길 24 한울빌리지 상가101호",
      "method": "manual",
      "lat": 37.52506,
      "lng": 126.80412
    },
    {
      "rank": 1,
      "name": "까치복권방",
      "address": "경기 시흥시 중심상가로 326 1층102",
      "method": "auto",
      "lat": 37.336678,
      "lng": 126.74821
    },
    {
      "rank": 1,
      "name": "1등 복권",
      "address": "경기 시흥시 배곧4로 32-27 105호",
      "method": "auto",
      "lat": 37.3777,
      "lng": 126.72552
    },
    {
      "rank": 1,
      "name": "드림메드",
      "address": "경기 안산시 상록구 월피로 56 101호",
      "method": "auto",
      "lat": 37.3334,
      "lng": 126.85087
    },
    {
      "rank": 1,
      "name": "나눔로또한대점",
      "address": "경기 안산시 상록구 중보로 57 한양대프라자106호",
      "method": "auto",
      "lat": 37.30809,
      "lng": 126.852844
    },
    {
      "rank": 1,
      "name": "세븐일레븐 홍익점",
      "address": "경기 안성시 종합운동장로 161",
      "method": "auto",
      "lat": 37.012398,
      "lng": 12.238893
    },
    {
      "rank": 1,
      "name": "복권",
      "address": "경기 의정부시 태평로 75",
      "method": "auto",
      "lat": 37.739246,
      "lng": 127.05129
    },
    {
      "rank": 1,
      "name": "복권세상",
      "address": "전남 목포시 청호로 139 1층 복권세상",
      "method": "auto",
      "lat": 34.8039,
      "lng": 126.37585
    },
    {
      "rank": 1,
      "name": "왕대박복권방",
      "address": "경북 문경시 중앙로 15",
      "method": "auto",
      "lat": 36.588123,
      "lng": 128.19293
    },
    {
      "rank": 1,
      "name": "본스튜디오",
      "address": "제주 제주시 하귀로 111",
      "method": "auto",
      "lat": 33.48359,
      "lng": 126.407875
    }
  ]
}