{
  "round": 1181,
  "date": "2025-07-19",
  "nums": [
    8,
    10,
    14,
    20,
    33,
    41
  ],
  "bonus": 28,
  "firstWinAmount": 1593643500,
  "firstWinners": 17,
  "totalSales": 113802682000,
  "prizes": {
    "first": {
      "amount": 1593643500,
      "winners": 17
    },
    "second": {
      "amount": 52503759,
      "winners": 86
    },
    "third": {
      "amount": 1452340,
      "winners": 3109
    },
    "fourth": {
      "amount": 50000,
      "winners": 155938
    },
    "fifth": {
      "amount": 5000,
      "winners": 2596371
    }
  },
  "methodCounts": {
    "auto": 7,
    "manual": 10,
    "mixed": 0
  },
  "topStores": [
    {
      "rank": 1,
      "name": "고고GOGO로또",
      "address": "서울 광진구 자양로15길 34",
      "method": "auto",
      "lat": 37.535645,
      "lng": 127.08174
    },
    {
      "rank": 1,
      "name": "잠실매점",
      "address": "서울 송파구 올림픽로 269 잠실역 8번출구 앞 가판",
      "method": "auto",
      "lat": 37.514446,
      "lng": 127.10071
    },
    {
      "rank": 1,
      "name": "뉴빅마트",
      "address": "부산 기장군 정관중앙로 48 106호",
      "method": "manual",
      "lat": 35.321114,
      "lng": 129.17929
    },
    {
      "rank": 1,
      "name": "뉴빅마트",
      "address": "부산 기장군 정관중앙로 48 106호",
      "method": "manual",
      "lat": 35.321114,
      "lng": 129.17929
    },
    {
      "rank": 1,
      "name": "뉴빅마트",
      "address": "부산 기장군 정관중앙로 48 106호",
      "method": "manual",
      "lat": 35.321114,
      "lng": 129.17929
    },
    {
      "rank": 1,
      "name": "뉴빅마트",
      "address": "부산 기장군 정관중앙로 48 106호",
      "method": "manual",
      "lat": 35.321114,
      "lng": 129.17929
    },
    {
      "rank": 1,
      "name": "뉴빅마트",
      "address": "부산 기장군 정관중앙로 48 106호",
      "method": "manual",
      "lat": 35.321114,
      "lng": 129.17929
    },
    {
      "rank": 1,
      "name": "뉴빅마트",
      "address": "부산 기장군 정관중앙로 48 106호",
      "method": "manual",
      "lat": 35.321114,
      "lng": 129.17929
    },
    {
      "rank": 1,
      "name": "뉴빅마트",
      "address": "부산 기장군 정관중앙로 48 106호",
      "method": "manual",
      "lat": 35.321114,
      "lng": 129.17929
    },
    {
      "rank": 1,
      "name": "뉴빅마트",
      "address": "부산 기장군 정관중앙로 48 106호",
      "method": "manual",
      "lat": 35.321114,
      "lng": 129.17929
    },
    {
      "rank": 1,
      "name": "화신상사",
      "address": "부산 동래구 삼성대길 48",
      "method": "auto",
      "lat": 35.205097,
      "lng": 129.08176
    },
    {
      "rank": 1,
      "name": "빅세일복권방",
      "address": "부산 부산진구 서면문화로 6",
      "method": "auto",
      "lat": 35.158302,
      "lng": 129.05809
    },
    {
      "rank": 1,
      "name": "로터리복권방",
      "address": "부산 서구 자갈치로 4",
      "method": "auto",
      "lat": 35.096195,
      "lng": 129.02484
    },
    {
      "rank": 1,
      "name": "금집복권",
      "address": "광주 북구 첨단연신로108번길 134",
      "method": "auto",
      "lat": 35.2088,
      "lng": 126.86471
    },
    {
      "rank": 1,
      "name": "로또복권방",
      "address": "경기 의왕시 효행로 42",
      "method": "manual",
      "lat": 37.351208,
      "lng": 126.97329
    },
    {
      "rank": 1,
      "name": "행운로또",
      "address": "충북 진천군 대하로 151 106호",
      "method": "auto",
      "lat": 36.9042,
      "lng": 127.53552
    },
    {
      "rank": 1,
      "name": "봉서산로또토토",
      "address": "충남 천안시 서북구 봉명로 25 1층 4호",
      "method": "manual",
      "lat": 36.807594,
      "lng": 127.131355
    }
  ]
}