{
  "round": 1189,
  "date": "2025-09-13",
  "nums": [
    9,
    19,
    29,
    35,
    37,
    38
  ],
  "bonus": 31,
  "firstWinAmount": 2263651299,
  "firstWinners": 13,
  "totalSales": 119484685000,
  "prizes": {
    "first": {
      "amount": 2263651299,
      "winners": 13
    },
    "second": {
      "amount": 29368730,
      "winners": 167
    },
    "third": {
      "amount": 1571477,
      "winners": 3121
    },
    "fourth": {
      "amount": 50000,
      "winners": 152345
    },
    "fifth": {
      "amount": 5000,
      "winners": 2577694
    }
  },
  "methodCounts": {
    "auto": 12,
    "manual": 1,
    "mixed": 0
  },
  "topStores": [
    {
      "rank": 1,
      "name": "태양 명당 복권방",
      "address": "서울 금천구 독산로 211 세진상가103호",
      "method": "auto",
      "lat": 37.46546,
      "lng": 126.90202
    },
    {
      "rank": 1,
      "name": "인터넷 복권판매사이트",
      "address": "동행복권(dhlottery.co.kr)",
      "method": "auto",
      "lat": 37.482063,
      "lng": 127.015785
    },
    {
      "rank": 1,
      "name": "중구-가로가판대-37",
      "address": "서울 중구 남대문로 20-2",
      "method": "auto",
      "lat": 37.56083,
      "lng": 126.97805
    },
    {
      "rank": 1,
      "name": "행복드림 복권",
      "address": "인천 서구 청라라임로 85 판매시설 비동 131호 후면(청라동, 청라린스트라우스)",
      "method": "auto",
      "lat": 37.53516,
      "lng": 126.65313
    },
    {
      "rank": 1,
      "name": "동키호테편의점",
      "address": "광주 서구 풍금로38번길 23",
      "method": "auto",
      "lat": 35.123924,
      "lng": 126.864746
    },
    {
      "rank": 1,
      "name": "영화유통(1등복권방)",
      "address": "울산 남구 신정로 19 삼성아파트 상가 204-101",
      "method": "auto",
      "lat": 35.533833,
      "lng": 129.32205
    },
    {
      "rank": 1,
      "name": "천하명당복권방",
      "address": "경기 수원시 팔달구 매산로 2",
      "method": "auto",
      "lat": 37.26661,
      "lng": 127.00185
    },
    {
      "rank": 1,
      "name": "우리로또복권",
      "address": "경기 연천군 청신로 91",
      "method": "auto",
      "lat": 37.982903,
      "lng": 127.06913
    },
    {
      "rank": 1,
      "name": "당첨쑥쑥복권",
      "address": "경기 의왕시 고산로 88",
      "method": "auto",
      "lat": 37.351463,
      "lng": 126.961395
    },
    {
      "rank": 1,
      "name": "로또야놀자",
      "address": "경북 경주시 양정로 211",
      "method": "manual",
      "lat": 35.85151,
      "lng": 129.22398
    },
    {
      "rank": 1,
      "name": "목화휴게소",
      "address": "경남 사천시 사천대로 912",
      "method": "auto",
      "lat": 35.0018,
      "lng": 128.05415
    },
    {
      "rank": 1,
      "name": "명당",
      "address": "경남 진주시 동부로 1356 1층 일부호",
      "method": "auto",
      "lat": 35.18731,
      "lng": 128.22482
    },
    {
      "rank": 1,
      "name": "세븐일레븐진해경화위브점",
      "address": "경남 창원시 진해구 조천로 29 세븐일레븐",
      "method": "auto",
      "lat": 35.1603,
      "lng": 128.68478
    }
  ]
}