{
  "round": 1192,
  "date": "2025-10-04",
  "nums": [
    10,
    16,
    23,
    36,
    39,
    40
  ],
  "bonus": 11,
  "firstWinAmount": 1079546587,
  "firstWinners": 29,
  "totalSales": 129050196000,
  "prizes": {
    "first": {
      "amount": 1079546587,
      "winners": 29
    },
    "second": {
      "amount": 54924300,
      "winners": 95
    },
    "third": {
      "amount": 1501096,
      "winners": 3476
    },
    "fourth": {
      "amount": 50000,
      "winners": 171551
    },
    "fifth": {
      "amount": 5000,
      "winners": 2841016
    }
  },
  "methodCounts": {
    "auto": 19,
    "manual": 8,
    "mixed": 0
  },
  "topStores": [
    {
      "rank": 1,
      "name": "삼성마트",
      "address": "서울 강남구 선릉로 636 102호(키스톤빌딩)",
      "method": "auto",
      "lat": 37.51332,
      "lng": 127.042915
    },
    {
      "rank": 1,
      "name": "장안평역 3번출구 가판대",
      "address": "서울 동대문구 장한로 6-1 장한평역 3번출구 앞 가판대",
      "method": "auto",
      "lat": 37.561966,
      "lng": 127.06511
    },
    {
      "rank": 1,
      "name": "명신사",
      "address": "서울 마포구 월드컵로 97",
      "method": "manual",
      "lat": 37.55725,
      "lng": 126.90864
    },
    {
      "rank": 1,
      "name": "로또킹",
      "address": "서울 영등포구 영중로 2 1층(영등포동3가)",
      "method": "auto",
      "lat": 37.516743,
      "lng": 126.906746
    },
    {
      "rank": 1,
      "name": "돈벼락맞는곳",
      "address": "부산 사상구 낙동대로 910 마트월드 A-160호",
      "method": "manual",
      "lat": 35.141865,
      "lng": 128.971
    },
    {
      "rank": 1,
      "name": "돈벼락맞는곳",
      "address": "부산 사상구 낙동대로 910 마트월드 A-160호",
      "method": "manual",
      "lat": 35.141865,
      "lng": 128.971
    },
    {
      "rank": 1,
      "name": "돈벼락맞는곳",
      "address": "부산 사상구 낙동대로 910 마트월드 A-160호",
      "method": "manual",
      "lat": 35.141865,
      "lng": 128.971
    },
    {
      "rank": 1,
      "name": "청솔서점",
      "address": "부산 사하구 하신번영로 195",
      "method": "manual",
      "lat": 35.098824,
      "lng": 128.95897
    },
    {
      "rank": 1,
      "name": "로또명당(유가테크노점)",
      "address": "대구 달성군 테크노상업로 108 1동 1층 114호(테크노에이스)",
      "method": "auto",
      "lat": 35.693245,
      "lng": 128.46114
    },
    {
      "rank": 1,
      "name": "광주공항로또",
      "address": "광주 광산구 상무대로 411 1층",
      "method": "auto",
      "lat": 35.144405,
      "lng": 126.81089
    },
    {
      "rank": 1,
      "name": "로또25시",
      "address": "울산 남구 수암로288번길 1 1층",
      "method": "auto",
      "lat": 35.521145,
      "lng": 129.33603
    },
    {
      "rank": 1,
      "name": "미보라복권방",
      "address": "울산 중구 염포로 15",
      "method": "manual",
      "lat": 35.559395,
      "lng": 129.34323
    },
    {
      "rank": 1,
      "name": "마두5번출구가판로또",
      "address": "경기 고양시 일산동구 중앙로 1200",
      "method": "auto",
      "lat": 37.65387,
      "lng": 126.77711
    },
    {
      "rank": 1,
      "name": "남문시장",
      "address": "경기 수원시 팔달구 수원천로255번길 6 89호(영동, 영동시장)",
      "method": "auto",
      "lat": 37.277485,
      "lng": 127.01864
    },
    {
      "rank": 1,
      "name": "일번가",
      "address": "경기 용인시 기흥구 서천서로20번길 4-6 102동",
      "method": "mixed",
      "lat": 37.240196,
      "lng": 127.07599
    },
    {
      "rank": 1,
      "name": "천하명당",
      "address": "경기 파주시 방촌로 1719-68 좋은빌딩2 107호",
      "method": "auto",
      "lat": 37.866947,
      "lng": 126.78361
    },
    {
      "rank": 1,
      "name": "바른",
      "address": "경기 하남시 신장로 68",
      "method": "auto",
      "lat": 37.53573,
      "lng": 127.21005
    },
    {
      "rank": 1,
      "name": "율암25시편의점",
      "address": "경기 화성시 시청로 822",
      "method": "mixed",
      "lat": 37.166355,
      "lng": 126.88175
    },
    {
      "rank": 1,
      "name": "동탄호수복권",
      "address": "경기 화성시 동탄순환대로 127-5 1층 101호",
      "method": "auto",
      "lat": 37.16609,
      "lng": 127.10728
    },
    {
      "rank": 1,
      "name": "유니로또",
      "address": "강원 원주시 행구로 45 1층",
      "method": "auto",
      "lat": 37.341587,
      "lng": 127.96079
    },
    {
      "rank": 1,
      "name": "일등대박복권방",
      "address": "충북 진천군 중앙동로 74-1 1층",
      "method": "manual",
      "lat": 36.856537,
      "lng": 127.44515
    },
    {
      "rank": 1,
      "name": "해수로또",
      "address": "충북 청주시 상당구 산성로 22-1",
      "method": "auto",
      "lat": 36.62615,
      "lng": 127.49938
    },
    {
      "rank": 1,
      "name": "씨유 율량칸타빌 4차점",
      "address": "충북 청주시 청원구 율중로 19 편의점",
      "method": "auto",
      "lat": 36.660393,
      "lng": 127.50668
    },
    {
      "rank": 1,
      "name": "터미널복권",
      "address": "충북 충주시 봉계1길 49 충주터미널1층",
      "method": "manual",
      "lat": 36.981136,
      "lng": 127.91502
    },
    {
      "rank": 1,
      "name": "베스트올수성점",
      "address": "전북 정읍시 수성2로 28",
      "method": "auto",
      "lat": 35.58169,
      "lng": 126.854416
    },
    {
      "rank": 1,
      "name": "또니로또연구소 한꼴토토",
      "address": "전남 순천시 장선배기1길 6-53 1층",
      "method": "auto",
      "lat": 34.9534,
      "lng": 127.52422
    },
    {
      "rank": 1,
      "name": "씨스페이스 경주세방매점",
      "address": "경북 경주시 산업로 4447 (용강동)",
      "method": "auto",
      "lat": 35.877205,
      "lng": 129.22649
    },
    {
      "rank": 1,
      "name": "대청행복복권",
      "address": "경남 김해시 대청로 121 대청프라자 B동 104호",
      "method": "auto",
      "lat": 35.18577,
      "lng": 128.79791
    },
    {
      "rank": 1,
      "name": "조선복권",
      "address": "경남 창원시 의창구 남산로 111 1층 GS25편의점",
      "method": "auto",
      "lat": 35.2543,
      "lng": 128.6203
    }
  ]
}