{
  "round": 1194,
  "date": "2025-10-18",
  "nums": [
    3,
    13,
    15,
    24,
    33,
    37
  ],
  "bonus": 2,
  "firstWinAmount": 985155349,
  "firstWinners": 28,
  "totalSales": 121085706000,
  "prizes": {
    "first": {
      "amount": 985155349,
      "winners": 28
    },
    "second": {
      "amount": 46438300,
      "winners": 99
    },
    "third": {
      "amount": 844799,
      "winners": 5442
    },
    "fourth": {
      "amount": 50000,
      "winners": 186820
    },
    "fifth": {
      "amount": 5000,
      "winners": 2884544
    }
  },
  "methodCounts": {
    "auto": 5,
    "manual": 20,
    "mixed": 0
  },
  "topStores": [
    {
      "rank": 1,
      "name": "미나식품(로또판매점)",
      "address": "서울 강서구 금낭화로 91-12",
      "method": "manual",
      "lat": 37.5735,
      "lng": 126.81066
    },
    {
      "rank": 1,
      "name": "종로3가1호선역2번출구가로판매점82호",
      "address": "서울 종로구 돈화문로 23 가판",
      "method": "manual",
      "lat": 37.5707,
      "lng": 126.991875
    },
    {
      "rank": 1,
      "name": "지에스(GS)25 기장읍내로",
      "address": "부산 기장군 읍내로94번길 2",
      "method": "manual",
      "lat": 35.24467,
      "lng": 129.21439
    },
    {
      "rank": 1,
      "name": "로또성지",
      "address": "부산 부산진구 백양관문로 104-1",
      "method": "manual",
      "lat": 35.168537,
      "lng": 129.02856
    },
    {
      "rank": 1,
      "name": "희망복권판매점",
      "address": "인천 서구 보듬5로 5 104호일부",
      "method": "manual",
      "lat": 37.594208,
      "lng": 126.61228
    },
    {
      "rank": 1,
      "name": "1등복권방",
      "address": "인천 연수구 해돋이로 168 (송도동 21-13 혜인프라자 104호)",
      "method": "mixed",
      "lat": 37.395416,
      "lng": 126.64522
    },
    {
      "rank": 1,
      "name": "씨유 송도점",
      "address": "인천 연수구 인권로 9 1층 CU",
      "method": "manual",
      "lat": 37.418644,
      "lng": 126.65144
    },
    {
      "rank": 1,
      "name": "알리바이",
      "address": "광주 광산구 수등로 253 1층 알리바이",
      "method": "manual",
      "lat": 35.185387,
      "lng": 126.83668
    },
    {
      "rank": 1,
      "name": "황금열쇠복권방",
      "address": "울산 북구 신기15길 2",
      "method": "manual",
      "lat": 35.645832,
      "lng": 129.35484
    },
    {
      "rank": 1,
      "name": "행복나눔로또",
      "address": "경기 남양주시 마석로 37 101호",
      "method": "auto",
      "lat": 37.654255,
      "lng": 127.306145
    },
    {
      "rank": 1,
      "name": "버스표가판점",
      "address": "경기 안양시 동안구 동안로 125-2 범계역4-1출구앞 버스표가판점",
      "method": "auto",
      "lat": 37.389736,
      "lng": 126.95106
    },
    {
      "rank": 1,
      "name": "황금마트",
      "address": "경기 평택시 현신3길 5-9",
      "method": "manual",
      "lat": 36.996082,
      "lng": 127.13491
    },
    {
      "rank": 1,
      "name": "행운슈퍼",
      "address": "경기 화성시 병점3로 37 106호",
      "method": "manual",
      "lat": 37.20829,
      "lng": 127.03755
    },
    {
      "rank": 1,
      "name": "왕대박복권전문점",
      "address": "강원 동해시 중앙로 234 이주민상가1층18호",
      "method": "manual",
      "lat": 37.52171,
      "lng": 129.115
    },
    {
      "rank": 1,
      "name": "왕대박복권",
      "address": "강원 속초시 번영로 142 1층, 102호",
      "method": "manual",
      "lat": 38.211353,
      "lng": 128.58932
    },
    {
      "rank": 1,
      "name": "속초등대로또복권",
      "address": "강원 속초시 영금정로 23",
      "method": "auto",
      "lat": 38.212677,
      "lng": 128.59906
    },
    {
      "rank": 1,
      "name": "복드림로또판매점",
      "address": "충북 충주시 첨단산업9로 13 1충",
      "method": "mixed",
      "lat": 36.9995,
      "lng": 127.83492
    },
    {
      "rank": 1,
      "name": "153로또판매점",
      "address": "충남 아산시 배방로 57-23",
      "method": "manual",
      "lat": 36.772297,
      "lng": 127.05734
    },
    {
      "rank": 1,
      "name": "예스복권방",
      "address": "충남 천안시 동남구 천안천공원6길 14-5 1층",
      "method": "auto",
      "lat": 36.795994,
      "lng": 127.147995
    },
    {
      "rank": 1,
      "name": "농산물직판장",
      "address": "전북 군산시 백토로 128",
      "method": "manual",
      "lat": 35.96753,
      "lng": 126.70487
    },
    {
      "rank": 1,
      "name": "부안복권방",
      "address": "전북 부안군 번영로 135",
      "method": "manual",
      "lat": 35.72623,
      "lng": 126.73543
    },
    {
      "rank": 1,
      "name": "행운복권방",
      "address": "전북 부안군 번영로 109",
      "method": "manual",
      "lat": 35.72662,
      "lng": 126.73255
    },
    {
      "rank": 1,
      "name": "로또로복권",
      "address": "전북 전주시 완산구 모악로 4729",
      "method": "manual",
      "lat": 35.791546,
      "lng": 127.131294
    },
    {
      "rank": 1,
      "name": "로타리상회",
      "address": "경북 구미시 산호대로 199 상가1층4호",
      "method": "manual",
      "lat": 36.10139,
      "lng": 128.38504
    },
    {
      "rank": 1,
      "name": "복권나라",
      "address": "경북 포항시 북구 장량로140번길 9",
      "method": "manual",
      "lat": 36.08086,
      "lng": 129.39603
    },
    {
      "rank": 1,
      "name": "로또행운마트",
      "address": "경남 김해시 능동로 177 복권판매점",
      "method": "auto",
      "lat": 35.203793,
      "lng": 128.81001
    },
    {
      "rank": 1,
      "name": "로또복권판매 초전점",
      "address": "경남 진주시 대신로457번길 9 1층",
      "method": "mixed",
      "lat": 35.201275,
      "lng": 128.11505
    },
    {
      "rank": 1,
      "name": "범섬로또",
      "address": "제주 서귀포시 월드컵로 169",
      "method": "manual",
      "lat": 33.23481,
      "lng": 126.50678
    }
  ]
}