{
  "round": 1200,
  "date": "2025-11-29",
  "nums": [
    1,
    2,
    4,
    16,
    20,
    32
  ],
  "bonus": 45,
  "firstWinAmount": 2357299875,
  "firstWinners": 12,
  "totalSales": 118339596000,
  "prizes": {
    "first": {
      "amount": 2357299875,
      "winners": 12
    },
    "second": {
      "amount": 58932497,
      "winners": 80
    },
    "third": {
      "amount": 1315458,
      "winners": 3584
    },
    "fourth": {
      "amount": 50000,
      "winners": 161754
    },
    "fifth": {
      "amount": 5000,
      "winners": 2673060
    }
  },
  "methodCounts": {
    "auto": 10,
    "manual": 2,
    "mixed": 0
  },
  "topStores": [
    {
      "rank": 1,
      "name": "살맛나는 세상",
      "address": "서울 동대문구 한천로46길 56-4 GS25시 휘경주공점",
      "method": "auto",
      "lat": 37.581577,
      "lng": 127.071365
    },
    {
      "rank": 1,
      "name": "인터넷 복권판매사이트",
      "address": "동행복권(dhlottery.co.kr)",
      "method": "auto",
      "lat": 37.482063,
      "lng": 127.015785
    },
    {
      "rank": 1,
      "name": "씨유 망우점2",
      "address": "서울 중랑구 망우로 410 1층",
      "method": "auto",
      "lat": 37.598976,
      "lng": 127.09761
    },
    {
      "rank": 1,
      "name": "행복한복권",
      "address": "대구 수성구 지범로31길 7 우측상가(지산동)",
      "method": "auto",
      "lat": 35.82267,
      "lng": 128.63895
    },
    {
      "rank": 1,
      "name": "황금돼지",
      "address": "인천 미추홀구 인주대로 370",
      "method": "auto",
      "lat": 37.451294,
      "lng": 126.677475
    },
    {
      "rank": 1,
      "name": "L마트",
      "address": "인천 서구 승학로 528 아카데미프라자107호",
      "method": "auto",
      "lat": 37.565594,
      "lng": 126.678185
    },
    {
      "rank": 1,
      "name": "바로전산",
      "address": "경기 광명시 오리로 1000 (광명동)",
      "method": "auto",
      "lat": 37.480213,
      "lng": 126.85236
    },
    {
      "rank": 1,
      "name": "로또방",
      "address": "경기 포천시 구절초로 44",
      "method": "manual",
      "lat": 37.897346,
      "lng": 127.20055
    },
    {
      "rank": 1,
      "name": "탑",
      "address": "강원 원주시 천사로 94 1층",
      "method": "auto",
      "lat": 37.348213,
      "lng": 127.93562
    },
    {
      "rank": 1,
      "name": "제천시현로또점",
      "address": "충북 제천시 의림대로 340 GS25",
      "method": "manual",
      "lat": 37.15744,
      "lng": 128.2122
    },
    {
      "rank": 1,
      "name": "행운의집로또",
      "address": "충남 아산시 북수북길 7-4 1층",
      "method": "auto",
      "lat": 36.775272,
      "lng": 127.06758
    },
    {
      "rank": 1,
      "name": "용남복권",
      "address": "경남 통영시 남해안대로 440",
      "method": "auto",
      "lat": 34.868935,
      "lng": 128.44438
    }
  ]
}