{
  "round": 1206,
  "date": "2026-01-10",
  "nums": [
    1,
    3,
    17,
    26,
    27,
    42
  ],
  "bonus": 23,
  "firstWinAmount": 1868807000,
  "firstWinners": 15,
  "totalSales": 121012690000,
  "prizes": {
    "first": {
      "amount": 1868807000,
      "winners": 15
    },
    "second": {
      "amount": 63135372,
      "winners": 74
    },
    "third": {
      "amount": 1403430,
      "winners": 3329
    },
    "fourth": {
      "amount": 50000,
      "winners": 172867
    },
    "fifth": {
      "amount": 5000,
      "winners": 2897371
    }
  },
  "methodCounts": {
    "auto": 7,
    "manual": 5,
    "mixed": 0
  },
  "topStores": [
    {
      "rank": 1,
      "name": "잉크와복권",
      "address": "서울 강서구 가로공원로76가길 12",
      "method": "auto",
      "lat": 37.53307,
      "lng": 126.83962
    },
    {
      "rank": 1,
      "name": "복권세계",
      "address": "서울 동작구 신대방길 8",
      "method": "manual",
      "lat": 37.487953,
      "lng": 126.912155
    },
    {
      "rank": 1,
      "name": "신세계슈퍼",
      "address": "서울 영등포구 대림로 191",
      "method": "auto",
      "lat": 37.49777,
      "lng": 126.89829
    },
    {
      "rank": 1,
      "name": "로또킹",
      "address": "서울 영등포구 영중로 2",
      "method": "auto",
      "lat": 37.516743,
      "lng": 126.906746
    },
    {
      "rank": 1,
      "name": "대박천하복권방",
      "address": "서울 은평구 연서로 150",
      "method": "manual",
      "lat": 37.60352,
      "lng": 126.91597
    },
    {
      "rank": 1,
      "name": "에스비 상사",
      "address": "서울 중구 퇴계로86길 29",
      "method": "mixed",
      "lat": 37.564255,
      "lng": 127.019806
    },
    {
      "rank": 1,
      "name": "청솔서점",
      "address": "부산 사하구 하신번영로 195",
      "method": "auto",
      "lat": 35.098824,
      "lng": 128.95897
    },
    {
      "rank": 1,
      "name": "우성 명당 복권방",
      "address": "경기 안산시 상록구 본오로 133",
      "method": "manual",
      "lat": 37.2973,
      "lng": 126.86652
    },
    {
      "rank": 1,
      "name": "로또육사오",
      "address": "경기 안산시 상록구 일동로 22",
      "method": "manual",
      "lat": 37.310066,
      "lng": 126.86888
    },
    {
      "rank": 1,
      "name": "대운로또(씨스페이스)",
      "address": "경기 화성시 사랑길 90",
      "method": "auto",
      "lat": 37.078716,
      "lng": 126.82305
    },
    {
      "rank": 1,
      "name": "불티나",
      "address": "강원 춘천시 후석로462번길 94-1",
      "method": "auto",
      "lat": 37.890953,
      "lng": 127.751976
    },
    {
      "rank": 1,
      "name": "스타복권판매점",
      "address": "강원 춘천시 방송길 104",
      "method": "manual",
      "lat": 37.867527,
      "lng": 127.72083
    },
    {
      "rank": 1,
      "name": "로또명당인주점",
      "address": "충남 아산시 서해로 519-2",
      "method": "auto",
      "lat": 36.87784,
      "lng": 126.89828
    },
    {
      "rank": 1,
      "name": "천만불로또복권",
      "address": "전북 남원시 용성로 207",
      "method": "mixed",
      "lat": 35.41606,
      "lng": 127.39496
    },
    {
      "rank": 1,
      "name": "화신복권방",
      "address": "제주 제주시 중앙로 183",
      "method": "mixed",
      "lat": 33.502876,
      "lng": 126.52785
    }
  ]
}