{
  "round": 1209,
  "date": "2026-01-31",
  "nums": [
    2,
    17,
    20,
    35,
    37,
    39
  ],
  "bonus": 24,
  "firstWinAmount": 1371910466,
  "firstWinners": 22,
  "totalSales": 124040394000,
  "prizes": {
    "first": {
      "amount": 1371910466,
      "winners": 22
    },
    "second": {
      "amount": 68908745,
      "winners": 73
    },
    "third": {
      "amount": 1601509,
      "winners": 3141
    },
    "fourth": {
      "amount": 50000,
      "winners": 163147
    },
    "fifth": {
      "amount": 5000,
      "winners": 2724028
    }
  },
  "methodCounts": {
    "auto": 13,
    "manual": 7,
    "mixed": 0
  },
  "topStores": [
    {
      "rank": 1,
      "name": "광나루복권방",
      "address": "서울 광진구 아차산로 591",
      "method": "auto",
      "lat": 37.546143,
      "lng": 127.10488
    },
    {
      "rank": 1,
      "name": "갑부복권판매점",
      "address": "서울 용산구 대사관로 80",
      "method": "manual",
      "lat": 37.53306,
      "lng": 127.006836
    },
    {
      "rank": 1,
      "name": "어썸위크",
      "address": "서울 중구 퇴계로87길 41 1층",
      "method": "manual",
      "lat": 37.56741,
      "lng": 127.02095
    },
    {
      "rank": 1,
      "name": "청구마트",
      "address": "대구 북구 검단로 34 청구아파트상가108동102호",
      "method": "auto",
      "lat": 35.90048,
      "lng": 128.6171
    },
    {
      "rank": 1,
      "name": "대박신화복권판매점",
      "address": "인천 미추홀구 인하로 267",
      "method": "auto",
      "lat": 37.44831,
      "lng": 126.677795
    },
    {
      "rank": 1,
      "name": "동인천황금로또",
      "address": "인천 중구 참외전로 110 1층",
      "method": "auto",
      "lat": 37.476524,
      "lng": 126.630585
    },
    {
      "rank": 1,
      "name": "알리바이",
      "address": "광주 광산구 수등로 253 1층 알리바이",
      "method": "auto",
      "lat": 35.185387,
      "lng": 126.83668
    },
    {
      "rank": 1,
      "name": "복권나라(중흥점)",
      "address": "광주 북구 우치로 26-1",
      "method": "auto",
      "lat": 35.16968,
      "lng": 126.91122
    },
    {
      "rank": 1,
      "name": "다다복권",
      "address": "세종  충현로 52 A동 9호",
      "method": "mixed",
      "lat": 36.593758,
      "lng": 127.29828
    },
    {
      "rank": 1,
      "name": "해븐복권방",
      "address": "경기 수원시 영통구 동수원로537번길 57 1층 103호",
      "method": "manual",
      "lat": 37.274834,
      "lng": 127.045906
    },
    {
      "rank": 1,
      "name": "해븐복권방",
      "address": "경기 수원시 영통구 동수원로537번길 57 1층 103호",
      "method": "manual",
      "lat": 37.274834,
      "lng": 127.045906
    },
    {
      "rank": 1,
      "name": "좋은날",
      "address": "경기 수원시 팔달구 팔달문로 165 104호(우만동)",
      "method": "manual",
      "lat": 37.28327,
      "lng": 127.034
    },
    {
      "rank": 1,
      "name": "로또휴게실",
      "address": "경기 용인시 기흥구 용구대로 1885",
      "method": "auto",
      "lat": 37.256386,
      "lng": 127.10432
    },
    {
      "rank": 1,
      "name": "1등로또",
      "address": "경기 화성시 동탄대로14길 5-33 101호",
      "method": "auto",
      "lat": 37.1852,
      "lng": 127.103264
    },
    {
      "rank": 1,
      "name": "명성복권방",
      "address": "경기 화성시 경기대로 1043",
      "method": "manual",
      "lat": 37.208466,
      "lng": 127.0343
    },
    {
      "rank": 1,
      "name": "올인 (all in)",
      "address": "경기 화성시 3.1만세로 1147",
      "method": "auto",
      "lat": 37.135284,
      "lng": 126.910614
    },
    {
      "rank": 1,
      "name": "대박마트",
      "address": "충남 천안시 동남구 봉서8길 13 봉명청솔아파트상가103호",
      "method": "manual",
      "lat": 36.81099,
      "lng": 127.13251
    },
    {
      "rank": 1,
      "name": "로또복권두정점",
      "address": "충남 천안시 서북구 두정로 251 대원빌딩104호",
      "method": "auto",
      "lat": 36.833515,
      "lng": 127.14499
    },
    {
      "rank": 1,
      "name": "동남슈퍼",
      "address": "전북 부안군 번영로 173",
      "method": "auto",
      "lat": 35.727222,
      "lng": 126.73916
    },
    {
      "rank": 1,
      "name": "명당로또 풍남문점",
      "address": "전북 전주시 완산구 풍남문2길 34",
      "method": "auto",
      "lat": 35.813526,
      "lng": 127.14705
    },
    {
      "rank": 1,
      "name": "코리아25옥계점",
      "address": "경북 구미시 산호대로25길 18-4",
      "method": "auto",
      "lat": 36.138367,
      "lng": 128.41649
    },
    {
      "rank": 1,
      "name": "진양호",
      "address": "경남 진주시 남강로 58 1층",
      "method": "mixed",
      "lat": 35.162823,
      "lng": 128.03957
    }
  ]
}