{
  "round": 1214,
  "date": "2026-03-07",
  "nums": [
    10,
    15,
    19,
    27,
    30,
    33
  ],
  "bonus": 14,
  "firstWinAmount": 2431577188,
  "firstWinners": 12,
  "totalSales": 124815860000,
  "prizes": {
    "first": {
      "amount": 2431577188,
      "winners": 12
    },
    "second": {
      "amount": 49122772,
      "winners": 99
    },
    "third": {
      "amount": 1344156,
      "winners": 3618
    },
    "fourth": {
      "amount": 50000,
      "winners": 177889
    },
    "fifth": {
      "amount": 5000,
      "winners": 2921649
    }
  },
  "methodCounts": {
    "auto": 7,
    "manual": 5,
    "mixed": 0
  },
  "topStores": [
    {
      "rank": 1,
      "name": "인터넷 복권판매사이트",
      "address": "동행복권(dhlottery.co.kr)",
      "method": "manual",
      "lat": 37.482063,
      "lng": 127.015785
    },
    {
      "rank": 1,
      "name": "해인복권",
      "address": "서울 도봉구 도당로9길 63 나동 1층",
      "method": "auto",
      "lat": 37.66268,
      "lng": 127.03109
    },
    {
      "rank": 1,
      "name": "행운 로또복권",
      "address": "부산 해운대구 좌동로 107-10",
      "method": "manual",
      "lat": 35.17356,
      "lng": 129.17668
    },
    {
      "rank": 1,
      "name": "왕대박",
      "address": "부산 동래구 여고로113번길 59-4",
      "method": "auto",
      "lat": 35.201073,
      "lng": 129.0741
    },
    {
      "rank": 1,
      "name": "알리바이",
      "address": "광주 광산구 수등로 253 1층 알리바이",
      "method": "manual",
      "lat": 35.185387,
      "lng": 126.83668
    },
    {
      "rank": 1,
      "name": "알리바이",
      "address": "광주 광산구 수등로 253 1층 알리바이",
      "method": "manual",
      "lat": 35.185387,
      "lng": 126.83668
    },
    {
      "rank": 1,
      "name": "희망복권",
      "address": "경기 평택시 만세로 1776 성경마트 동일건물",
      "method": "manual",
      "lat": 37.00936,
      "lng": 127.108
    },
    {
      "rank": 1,
      "name": "수원역로또맛집",
      "address": "경기 수원시 팔달구 덕영대로 907 1층 6호(매산로1가)",
      "method": "auto",
      "lat": 37.267673,
      "lng": 127.00051
    },
    {
      "rank": 1,
      "name": "명품복권방",
      "address": "전남 목포시 섶나루길 122 상가 123호",
      "method": "auto",
      "lat": 34.81054,
      "lng": 126.41894
    },
    {
      "rank": 1,
      "name": "복권파는집",
      "address": "경남 창원시 마산회원구 3·15대로 765",
      "method": "auto",
      "lat": 35.240227,
      "lng": 128.58365
    },
    {
      "rank": 1,
      "name": "터미널복권판매점",
      "address": "경남 창원시 마산회원구 3·15대로 756 1층 102호(마산시외버스터미널)",
      "method": "auto",
      "lat": 35.23916,
      "lng": 128.58353
    },
    {
      "rank": 1,
      "name": "양산노다지복권방",
      "address": "경남 양산시 북안남2길 52 복권판매점",
      "method": "auto",
      "lat": 35.348255,
      "lng": 129.03783
    }
  ]
}