{
  "round": 1217,
  "date": "2026-03-28",
  "nums": [
    8,
    10,
    15,
    20,
    29,
    31
  ],
  "bonus": 41,
  "firstWinAmount": 2179738018,
  "firstWinners": 14,
  "totalSales": 125155256000,
  "prizes": {
    "first": {
      "amount": 2179738018,
      "winners": 14
    },
    "second": {
      "amount": 59835946,
      "winners": 85
    },
    "third": {
      "amount": 1520950,
      "winners": 3344
    },
    "fourth": {
      "amount": 50000,
      "winners": 163563
    },
    "fifth": {
      "amount": 5000,
      "winners": 2742207
    }
  },
  "methodCounts": {
    "auto": 12,
    "manual": 2,
    "mixed": 0
  },
  "topStores": [
    {
      "rank": 1,
      "name": "드림스튜디오",
      "address": "서울 은평구 서오릉로 160 1층",
      "method": "manual",
      "lat": 37.612503,
      "lng": 126.915695
    },
    {
      "rank": 1,
      "name": "굿럭커피",
      "address": "서울 은평구 불광천길 536",
      "method": "auto",
      "lat": 37.59791,
      "lng": 126.91639
    },
    {
      "rank": 1,
      "name": "24시슈퍼",
      "address": "인천 부평구 열우물로 111-1",
      "method": "auto",
      "lat": 37.476166,
      "lng": 126.69538
    },
    {
      "rank": 1,
      "name": "해피+24시편의점",
      "address": "광주 북구 하서로 330",
      "method": "auto",
      "lat": 35.2045,
      "lng": 126.8739
    },
    {
      "rank": 1,
      "name": "복권나라",
      "address": "광주 북구 동문대로134번길 5",
      "method": "auto",
      "lat": 35.174717,
      "lng": 126.92707
    },
    {
      "rank": 1,
      "name": "복권명당",
      "address": "대전 서구 만년남로3번길 164",
      "method": "auto",
      "lat": 36.366486,
      "lng": 127.37305
    },
    {
      "rank": 1,
      "name": "대전우표사",
      "address": "대전 동구 중앙로204번길 16-1",
      "method": "auto",
      "lat": 36.330036,
      "lng": 127.432076
    },
    {
      "rank": 1,
      "name": "대박로또점",
      "address": "경기 화성시 발안로 101 108호",
      "method": "manual",
      "lat": 37.13174,
      "lng": 126.92153
    },
    {
      "rank": 1,
      "name": "평택포승점로또",
      "address": "경기 평택시 여술로 24 CU편의점 내",
      "method": "auto",
      "lat": 36.988068,
      "lng": 126.84539
    },
    {
      "rank": 1,
      "name": "복권백화점",
      "address": "경기 파주시 평화로 70",
      "method": "auto",
      "lat": 37.763588,
      "lng": 126.76989
    },
    {
      "rank": 1,
      "name": "북부슈퍼",
      "address": "경기 의정부시 가능로125번길 22",
      "method": "auto",
      "lat": 37.74797,
      "lng": 127.04477
    },
    {
      "rank": 1,
      "name": "한국슈퍼",
      "address": "경기 부천시 원종로35번길 24 한울빌리지 상가101호",
      "method": "auto",
      "lat": 37.52506,
      "lng": 126.80412
    },
    {
      "rank": 1,
      "name": "로또복권",
      "address": "경북 김천시 신음새동네길 13",
      "method": "auto",
      "lat": 36.13478,
      "lng": 128.1185
    },
    {
      "rank": 1,
      "name": "땅땅낚시",
      "address": "경남 거제시 거제남서로 3172",
      "method": "auto",
      "lat": 34.8305,
      "lng": 128.60358
    }
  ]
}