{
  "round": 1221,
  "date": "2026-04-25",
  "nums": [
    6,
    13,
    18,
    28,
    30,
    36
  ],
  "bonus": 9,
  "firstWinAmount": 1830801165,
  "firstWinners": 16,
  "totalSales": 122979623000,
  "prizes": {
    "first": {
      "amount": 1830801165,
      "winners": 16
    },
    "second": {
      "amount": 50855588,
      "winners": 96
    },
    "third": {
      "amount": 1408986,
      "winners": 3465
    },
    "fourth": {
      "amount": 50000,
      "winners": 174082
    },
    "fifth": {
      "amount": 5000,
      "winners": 2745724
    }
  },
  "methodCounts": {
    "auto": 13,
    "manual": 2,
    "mixed": 0
  },
  "topStores": [
    {
      "rank": 1,
      "name": "복권나라",
      "address": "서울 성동구 용답중앙15길 12-1 1층",
      "method": "auto",
      "lat": 37.564453,
      "lng": 127.05385
    },
    {
      "rank": 1,
      "name": "인터넷 복권판매사이트",
      "address": "동행복권(dhlottery.co.kr)",
      "method": "manual",
      "lat": 37.482063,
      "lng": 127.015785
    },
    {
      "rank": 1,
      "name": "세명복권",
      "address": "서울 마포구 월드컵북로7길 26 1호",
      "method": "auto",
      "lat": 37.557987,
      "lng": 126.91659
    },
    {
      "rank": 1,
      "name": "하나로슈퍼",
      "address": "서울 동대문구 고산자로 484",
      "method": "auto",
      "lat": 37.582775,
      "lng": 127.03883
    },
    {
      "rank": 1,
      "name": "행운당",
      "address": "서울 노원구 노해로 506 바상가동 106호",
      "method": "auto",
      "lat": 37.654827,
      "lng": 127.0642
    },
    {
      "rank": 1,
      "name": "복권방",
      "address": "부산 사하구 장림번영로 25",
      "method": "auto",
      "lat": 35.08098,
      "lng": 128.96819
    },
    {
      "rank": 1,
      "name": "천하명당복권",
      "address": "대구 북구 칠곡중앙대로 545",
      "method": "auto",
      "lat": 35.944286,
      "lng": 128.55064
    },
    {
      "rank": 1,
      "name": "명동럭키로또",
      "address": "인천 연수구 경원대로483번길 6 103호",
      "method": "auto",
      "lat": 37.42753,
      "lng": 126.69848
    },
    {
      "rank": 1,
      "name": "광주도서유통",
      "address": "광주 남구 봉선1로 79",
      "method": "auto",
      "lat": 35.128155,
      "lng": 126.91389
    },
    {
      "rank": 1,
      "name": "까치로또판매점",
      "address": "대전 서구 계백로 1437",
      "method": "auto",
      "lat": 36.313602,
      "lng": 127.38079
    },
    {
      "rank": 1,
      "name": "민복권",
      "address": "경기 동두천시 지행로 96-14 1층(지행동)",
      "method": "auto",
      "lat": 37.892296,
      "lng": 127.0587
    },
    {
      "rank": 1,
      "name": "행운복권방",
      "address": "경기 김포시 김포대로 1764 누산마트내",
      "method": "auto",
      "lat": 37.670372,
      "lng": 126.64414
    },
    {
      "rank": 1,
      "name": "흥건슈퍼",
      "address": "전북 전주시 완산구 거마평로 25 흥건슈퍼",
      "method": "mixed",
      "lat": 35.794403,
      "lng": 127.11578
    },
    {
      "rank": 1,
      "name": "완산로또방",
      "address": "경북 영천시 대경로 1260",
      "method": "auto",
      "lat": 35.934788,
      "lng": 128.87108
    },
    {
      "rank": 1,
      "name": "하프타임 함안산인점",
      "address": "경남 함안군 외동길 3 1층 편의점내",
      "method": "manual",
      "lat": 35.293236,
      "lng": 128.43188
    },
    {
      "rank": 1,
      "name": "스마일",
      "address": "경남 양산시 북안남4길 2 복권판매점",
      "method": "auto",
      "lat": 35.34541,
      "lng": 129.03838
    }
  ]
}