{
  "round": 1224,
  "date": "2026-05-16",
  "nums": [
    9,
    18,
    21,
    27,
    44,
    45
  ],
  "bonus": 28,
  "firstWinAmount": 2414855250,
  "firstWinners": 12,
  "totalSales": 121110408000,
  "prizes": {
    "first": {
      "amount": 2414855250,
      "winners": 12
    },
    "second": {
      "amount": 68995865,
      "winners": 70
    },
    "third": {
      "amount": 1431874,
      "winners": 3373
    },
    "fourth": {
      "amount": 50000,
      "winners": 166726
    },
    "fifth": {
      "amount": 5000,
      "winners": 2716244
    }
  },
  "methodCounts": {
    "auto": 11,
    "manual": 1,
    "mixed": 0
  },
  "topStores": [
    {
      "rank": 1,
      "name": "가로판매점",
      "address": "서울 용산구 원효로 166 황제노래방 입구 앞 가판",
      "method": "auto",
      "lat": 37.535027,
      "lng": 126.96148
    },
    {
      "rank": 1,
      "name": "인터넷 복권판매사이트",
      "address": "동행복권(dhlottery.co.kr)",
      "method": "auto",
      "lat": 37.482063,
      "lng": 127.015785
    },
    {
      "rank": 1,
      "name": "토큰박스",
      "address": "서울 동작구 흑석로 106-5 가판점",
      "method": "auto",
      "lat": 37.507877,
      "lng": 126.96144
    },
    {
      "rank": 1,
      "name": "노다지 노원역점 복권방",
      "address": "서울 노원구 상계로 78",
      "method": "auto",
      "lat": 37.656227,
      "lng": 127.06375
    },
    {
      "rank": 1,
      "name": "마곡점빵",
      "address": "서울 강서구 마곡서1로 100 603동 상가 107호",
      "method": "auto",
      "lat": 37.565113,
      "lng": 126.81996
    },
    {
      "rank": 1,
      "name": "복권판매점 명지국제신도시점",
      "address": "부산 강서구 명지국제2로 80 비주거시설동1층 54호",
      "method": "auto",
      "lat": 35.098495,
      "lng": 128.90872
    },
    {
      "rank": 1,
      "name": "복권전문점",
      "address": "인천 부평구 원적로 437",
      "method": "auto",
      "lat": 37.503708,
      "lng": 126.71512
    },
    {
      "rank": 1,
      "name": "365대박찬스",
      "address": "경기 양주시 고읍남로 6-14 광사동 제이프라자",
      "method": "auto",
      "lat": 37.79592,
      "lng": 127.07915
    },
    {
      "rank": 1,
      "name": "로또복권방",
      "address": "경기 시흥시 은계로338번길 56 1층",
      "method": "auto",
      "lat": 37.45032,
      "lng": 126.79588
    },
    {
      "rank": 1,
      "name": "웅진",
      "address": "경기 수원시 영통구 효원로 393 101호(매탄동 밀래니엄프라자)",
      "method": "auto",
      "lat": 37.259117,
      "lng": 127.04469
    },
    {
      "rank": 1,
      "name": "미니슈퍼",
      "address": "경기 고양시 덕양구 동헌로1번길 4",
      "method": "manual",
      "lat": 37.705036,
      "lng": 126.85792
    },
    {
      "rank": 1,
      "name": "복권나라",
      "address": "경북 포항시 북구 장량로140번길 9",
      "method": "auto",
      "lat": 36.08079,
      "lng": 129.39603
    }
  ]
}