{
  "round": 1230,
  "date": "2026-06-27",
  "nums": [
    3,
    8,
    9,
    22,
    28,
    42
  ],
  "bonus": 45,
  "firstWinAmount": 1771357196,
  "firstWinners": 16,
  "totalSales": 120177677000,
  "prizes": {
    "first": {
      "amount": 1771357196,
      "winners": 16
    },
    "second": {
      "amount": 52484658,
      "winners": 90
    },
    "third": {
      "amount": 1415953,
      "winners": 3336
    },
    "fourth": {
      "amount": 50000,
      "winners": 168902
    },
    "fifth": {
      "amount": 5000,
      "winners": 2770957
    }
  },
  "methodCounts": {
    "auto": 15,
    "manual": 1,
    "mixed": 0
  },
  "topStores": [
    {
      "rank": 1,
      "name": "복권만화",
      "address": "서울 서초구 사임당로 39 1층 102호",
      "method": "auto",
      "lat": 37.488377,
      "lng": 127.0141
    },
    {
      "rank": 1,
      "name": "스파",
      "address": "서울 노원구 동일로 1493 주공10단지종합상가111",
      "method": "auto",
      "lat": 37.66167,
      "lng": 127.05789
    },
    {
      "rank": 1,
      "name": "행운당",
      "address": "서울 노원구 노해로 506 바상가동 106호",
      "method": "auto",
      "lat": 37.654827,
      "lng": 127.0642
    },
    {
      "rank": 1,
      "name": "대박복권방",
      "address": "서울 광진구 면목로 174",
      "method": "auto",
      "lat": 37.568672,
      "lng": 127.08298
    },
    {
      "rank": 1,
      "name": "천하명당복권방역전점",
      "address": "대전 동구 대전로 815",
      "method": "auto",
      "lat": 36.332405,
      "lng": 127.43188
    },
    {
      "rank": 1,
      "name": "로또기업",
      "address": "대전 동구 동서대로 1684 복합터미널 건너편",
      "method": "manual",
      "lat": 36.34879,
      "lng": 127.43706
    },
    {
      "rank": 1,
      "name": "천하명당(염포점)",
      "address": "울산 북구 염포로 643",
      "method": "auto",
      "lat": 35.53486,
      "lng": 129.38979
    },
    {
      "rank": 1,
      "name": "럭키",
      "address": "경기 평택시 서동대로 1207 1층",
      "method": "auto",
      "lat": 36.98565,
      "lng": 126.88721
    },
    {
      "rank": 1,
      "name": "월척복권방",
      "address": "경기 용인시 기흥구 강남동로100번길 9 103호",
      "method": "auto",
      "lat": 37.272633,
      "lng": 127.13744
    },
    {
      "rank": 1,
      "name": "오케이마트",
      "address": "경기 성남시 중원구 광명로 80 1층 101호(성남동)",
      "method": "auto",
      "lat": 37.43442,
      "lng": 127.13795
    },
    {
      "rank": 1,
      "name": "다미 로또",
      "address": "경기 김포시 김포대로 2231 1동 1층 102호",
      "method": "auto",
      "lat": 37.689445,
      "lng": 126.59785
    },
    {
      "rank": 1,
      "name": "마두역상행선 가판대",
      "address": "경기 고양시 일산동구 중앙로 1181 마두역 중앙 횡단보도 오른쪽",
      "method": "auto",
      "lat": 37.65225,
      "lng": 126.77708
    },
    {
      "rank": 1,
      "name": "세명24시로또",
      "address": "충북 제천시 바이오밸리로 211 3호",
      "method": "auto",
      "lat": 37.15624,
      "lng": 128.17348
    },
    {
      "rank": 1,
      "name": "오징어게임복권방",
      "address": "충북 음성군 대금로 602 101호",
      "method": "auto",
      "lat": 36.96752,
      "lng": 127.50523
    },
    {
      "rank": 1,
      "name": "리틀밥독 소이 행운복권",
      "address": "경북 구미시 인동35길 9 1층 리틀밥독 소이 행운복권",
      "method": "auto",
      "lat": 36.095173,
      "lng": 128.43288
    },
    {
      "rank": 1,
      "name": "나누리로또",
      "address": "경북 경산시 성암로15길 4 1층",
      "method": "auto",
      "lat": 35.824326,
      "lng": 128.72427
    }
  ]
}