{
  "round": 264,
  "date": "2007-12-22",
  "nums": [
    9,
    16,
    27,
    36,
    41,
    44
  ],
  "bonus": 5,
  "firstWinAmount": 1344889200,
  "firstWinners": 7,
  "totalSales": 39783178000,
  "prizes": {
    "first": {
      "amount": 1344889200,
      "winners": 7
    },
    "second": {
      "amount": 58112497,
      "winners": 27
    },
    "third": {
      "amount": 1498604,
      "winners": 1047
    },
    "fourth": {
      "amount": 62642,
      "winners": 50096
    },
    "fifth": {
      "amount": 5000,
      "winners": 840243
    }
  },
  "methodCounts": {
    "auto": 3,
    "manual": 4,
    "mixed": 0
  },
  "topStores": [
    {
      "rank": 1,
      "name": "C-Space 신림녹두",
      "address": "서울 관악구 신림9동  240-3  밀라트빌딩",
      "method": "manual",
      "lat": 37.486572,
      "lng": 126.91299
    },
    {
      "rank": 1,
      "name": "미니스톱기장점",
      "address": "부산 기장군 차성동로 69",
      "method": "auto",
      "lat": 35.243927,
      "lng": 129.2165
    },
    {
      "rank": 1,
      "name": "천하명당초량점",
      "address": "부산 동구 중앙대로221번길 3",
      "method": "auto",
      "lat": 35.116898,
      "lng": 129.04013
    },
    {
      "rank": 1,
      "name": "복권명당",
      "address": "대구 수성구 수성로 337 1층 동북편상가",
      "method": "manual",
      "lat": 35.85569,
      "lng": 128.61345
    },
    {
      "rank": 1,
      "name": "LG슈퍼",
      "address": "경기 광명시 연서로 10",
      "method": "auto",
      "lat": 37.48104,
      "lng": 126.863335
    },
    {
      "rank": 1,
      "name": "당첨로또복권",
      "address": "경기 안양시 동안구 포도원로 4",
      "method": "manual",
      "lat": 37.361946,
      "lng": 126.96251
    },
    {
      "rank": 1,
      "name": "제철로또대리점",
      "address": "전남 광양시 광장로 125 시티프라자A동116호",
      "method": "manual",
      "lat": 34.935413,
      "lng": 127.693985
    }
  ]
}