{
  "round": 265,
  "date": "2007-12-29",
  "nums": [
    5,
    9,
    34,
    37,
    38,
    39
  ],
  "bonus": 12,
  "firstWinAmount": 1200838575,
  "firstWinners": 8,
  "totalSales": 40913922000,
  "prizes": {
    "first": {
      "amount": 1200838575,
      "winners": 8
    },
    "second": {
      "amount": 84269374,
      "winners": 19
    },
    "third": {
      "amount": 1585266,
      "winners": 1010
    },
    "fourth": {
      "amount": 60459,
      "winners": 52966
    },
    "fifth": {
      "amount": 5000,
      "winners": 889156
    }
  },
  "methodCounts": {
    "auto": 8,
    "manual": 0,
    "mixed": 0
  },
  "topStores": [
    {
      "rank": 1,
      "name": "한미복권방",
      "address": "서울 강동구 성내1동  550",
      "method": "auto",
      "lat": 37.529194,
      "lng": 127.12381
    },
    {
      "rank": 1,
      "name": "교통카드판매대",
      "address": "서울 관악구 신림9동  240-4",
      "method": "auto",
      "lat": 37.470345,
      "lng": 126.93811
    },
    {
      "rank": 1,
      "name": "세종장식",
      "address": "서울 양천구 오목로 204",
      "method": "auto",
      "lat": 37.52534,
      "lng": 126.860054
    },
    {
      "rank": 1,
      "name": "가로판매(버스카드)",
      "address": "서울 영등포구 여의나루로 42 가로판매점(여의도동)",
      "method": "auto",
      "lat": 37.52147,
      "lng": 126.92497
    },
    {
      "rank": 1,
      "name": "동아슈퍼마켓",
      "address": "경기 안산시 단원구 원곡동 748-6",
      "method": "auto",
      "lat": 37.331112,
      "lng": 126.79315
    },
    {
      "rank": 1,
      "name": "태흥금방",
      "address": "경기 의정부시 의정로 118",
      "method": "auto",
      "lat": 37.743553,
      "lng": 127.03504
    },
    {
      "rank": 1,
      "name": "승일유통",
      "address": "충북 청주시 흥덕구 월명로 42",
      "method": "auto",
      "lat": 36.63832,
      "lng": 127.45375
    },
    {
      "rank": 1,
      "name": "에버빌마트",
      "address": "경북 안동시 강남5길 102 에버빌마트 1층",
      "method": "auto",
      "lat": 36.551132,
      "lng": 128.73126
    }
  ]
}