{
  "round": 290,
  "date": "2008-06-21",
  "nums": [
    8,
    13,
    18,
    32,
    39,
    45
  ],
  "bonus": 7,
  "firstWinAmount": 2149214424,
  "firstWinners": 13,
  "totalSales": 80362302000,
  "prizes": {
    "first": {
      "amount": 2149214424,
      "winners": 13
    },
    "second": {
      "amount": 51251650,
      "winners": 61
    },
    "third": {
      "amount": 1361059,
      "winners": 2297
    },
    "fourth": {
      "amount": 58573,
      "winners": 106752
    },
    "fifth": {
      "amount": 5000,
      "winners": 1783529
    }
  },
  "methodCounts": {
    "auto": 10,
    "manual": 3,
    "mixed": 0
  },
  "topStores": [
    {
      "rank": 1,
      "name": "로또잭팟",
      "address": "서울 관악구 신림동  727-5",
      "method": "auto",
      "lat": 37.474384,
      "lng": 126.9164
    },
    {
      "rank": 1,
      "name": "신수칼라",
      "address": "서울 마포구 동교로27길 53",
      "method": "auto",
      "lat": 37.56015,
      "lng": 126.92083
    },
    {
      "rank": 1,
      "name": "GS25(양재공원)",
      "address": "서울 서초구 양재동  321-2",
      "method": "auto",
      "lat": 37.47102,
      "lng": 127.04134
    },
    {
      "rank": 1,
      "name": "원스탑",
      "address": "서울 송파구 백제고분로7길 39",
      "method": "auto",
      "lat": 37.510902,
      "lng": 127.08321
    },
    {
      "rank": 1,
      "name": "조이풀이삭토스트",
      "address": "부산 동래구 중앙대로 1520 북쪽출구 빵집",
      "method": "auto",
      "lat": 35.213894,
      "lng": 129.08134
    },
    {
      "rank": 1,
      "name": "㈜ Cspace 중앙제일점",
      "address": "부산 중구 동광동3가  17-2",
      "method": "manual",
      "lat": 35.10116,
      "lng": 129.03479
    },
    {
      "rank": 1,
      "name": "대광슈퍼",
      "address": "경기 군포시 고산로 679 미성프라자106호",
      "method": "manual",
      "lat": 37.371067,
      "lng": 126.93395
    },
    {
      "rank": 1,
      "name": "로또판매점",
      "address": "경기 안산시 상록구 안산천동로1길 29 현대2차아파트상가18호",
      "method": "auto",
      "lat": 37.330612,
      "lng": 126.848595
    },
    {
      "rank": 1,
      "name": "신봤다대박복권방",
      "address": "경기 안산시 상록구 본오동 본오동 882-2  1층 우측상가",
      "method": "auto",
      "lat": 37.29337,
      "lng": 126.861465
    },
    {
      "rank": 1,
      "name": "행운복권방",
      "address": "경기 포천시 솔모루로 86-1",
      "method": "auto",
      "lat": 37.8288,
      "lng": 127.14748
    },
    {
      "rank": 1,
      "name": "원동슈퍼",
      "address": "충남 보령시 대천로 28",
      "method": "auto",
      "lat": 36.35113,
      "lng": 126.59745
    },
    {
      "rank": 1,
      "name": "명성복권방",
      "address": "전남 순천시 기적의도서관길 25 명성복권방",
      "method": "auto",
      "lat": 34.948273,
      "lng": 127.52518
    },
    {
      "rank": 1,
      "name": "훼미리마트(구미사곡)",
      "address": "경북 구미시 사곡동  481-7",
      "method": "manual",
      "lat": 36.098217,
      "lng": 128.35858
    }
  ]
}