{
  "round": 299,
  "date": "2008-08-23",
  "nums": [
    1,
    3,
    20,
    25,
    36,
    45
  ],
  "bonus": 24,
  "firstWinAmount": 1483772529,
  "firstWinners": 7,
  "totalSales": 44463909000,
  "prizes": {
    "first": {
      "amount": 1483772529,
      "winners": 7
    },
    "second": {
      "amount": 59691999,
      "winners": 29
    },
    "third": {
      "amount": 1548362,
      "winners": 1118
    },
    "fourth": {
      "amount": 59575,
      "winners": 58114
    },
    "fifth": {
      "amount": 5000,
      "winners": 984255
    }
  },
  "methodCounts": {
    "auto": 6,
    "manual": 1,
    "mixed": 0
  },
  "topStores": [
    {
      "rank": 1,
      "name": "대박복권",
      "address": "서울 강서구 등촌동  674-1 미니스톱내발산역점(내)",
      "method": "auto",
      "lat": 37.559284,
      "lng": 126.838844
    },
    {
      "rank": 1,
      "name": "컴텔정보통신",
      "address": "서울 도봉구 쌍문2동  49-1호",
      "method": "auto",
      "lat": 37.657375,
      "lng": 127.037926
    },
    {
      "rank": 1,
      "name": "복권나라",
      "address": "서울 중구 남대문로5가  12-5",
      "method": "auto",
      "lat": 37.55862,
      "lng": 126.975
    },
    {
      "rank": 1,
      "name": "삼월쇼핑",
      "address": "부산 부산진구 가야대로 784 33",
      "method": "auto",
      "lat": 35.155968,
      "lng": 129.05736
    },
    {
      "rank": 1,
      "name": "삼성복권방",
      "address": "경기 동두천시 어수로 100-1",
      "method": "auto",
      "lat": 37.902187,
      "lng": 127.05362
    },
    {
      "rank": 1,
      "name": "웅진코웨이",
      "address": "경기 수원시 팔달구 효원로 257 홈플러스동수원점 4층(홈플러스 동수원점)",
      "method": "auto",
      "lat": 37.262756,
      "lng": 127.03011
    },
    {
      "rank": 1,
      "name": "다니엘사",
      "address": "경기 안산시 단원구 원선1로 38 두산위브아파트 101호",
      "method": "manual",
      "lat": 37.326073,
      "lng": 126.80417
    }
  ]
}