{
  "round": 316,
  "date": "2008-12-20",
  "nums": [
    10,
    11,
    21,
    27,
    31,
    39
  ],
  "bonus": 43,
  "firstWinAmount": 1673586400,
  "firstWinners": 6,
  "totalSales": 44073768000,
  "prizes": {
    "first": {
      "amount": 1673586400,
      "winners": 6
    },
    "second": {
      "amount": 57709876,
      "winners": 29
    },
    "third": {
      "amount": 1197130,
      "winners": 1398
    },
    "fourth": {
      "amount": 48967,
      "winners": 68356
    },
    "fifth": {
      "amount": 5000,
      "winners": 1060204
    }
  },
  "methodCounts": {
    "auto": 2,
    "manual": 4,
    "mixed": 0
  },
  "topStores": [
    {
      "rank": 1,
      "name": "럭키슈퍼",
      "address": "서울 용산구 후암로 52",
      "method": "manual",
      "lat": 37.550594,
      "lng": 126.97736
    },
    {
      "rank": 1,
      "name": "왕대박",
      "address": "부산 동래구 여고로113번길 59-4",
      "method": "manual",
      "lat": 35.201073,
      "lng": 129.0741
    },
    {
      "rank": 1,
      "name": "훼미리마트관음점",
      "address": "대구 북구 칠곡중앙대로 475",
      "method": "manual",
      "lat": 35.938194,
      "lng": 128.54906
    },
    {
      "rank": 1,
      "name": "버스매표소",
      "address": "인천 부평구 부평대로 3 가판",
      "method": "manual",
      "lat": 37.49181,
      "lng": 126.722725
    },
    {
      "rank": 1,
      "name": "훼미리마트(광주우산점)",
      "address": "광주 광산구 우산동  1573-1",
      "method": "auto",
      "lat": 35.163925,
      "lng": 126.802605
    },
    {
      "rank": 1,
      "name": "태안로또복권방",
      "address": "충남 태안군 독샘로 57",
      "method": "auto",
      "lat": 36.75318,
      "lng": 126.29935
    }
  ]
}