{
  "round": 325,
  "date": "2009-02-21",
  "nums": [
    7,
    17,
    20,
    32,
    44,
    45
  ],
  "bonus": 33,
  "firstWinAmount": 1806122450,
  "firstWinners": 6,
  "totalSales": 46636979000,
  "prizes": {
    "first": {
      "amount": 1806122450,
      "winners": 6
    },
    "second": {
      "amount": 54730984,
      "winners": 33
    },
    "third": {
      "amount": 1435710,
      "winners": 1258
    },
    "fourth": {
      "amount": 57677,
      "winners": 62629
    },
    "fifth": {
      "amount": 5000,
      "winners": 1051453
    }
  },
  "methodCounts": {
    "auto": 6,
    "manual": 0,
    "mixed": 0
  },
  "topStores": [
    {
      "rank": 1,
      "name": "가판점80호",
      "address": "서울 중구 을지로4가  310-68",
      "method": "auto",
      "lat": 37.56612,
      "lng": 126.99556
    },
    {
      "rank": 1,
      "name": "왕대박복권",
      "address": "대구 달성군 달구벌대로 812",
      "method": "auto",
      "lat": 35.860928,
      "lng": 128.46127
    },
    {
      "rank": 1,
      "name": "아진동대구역광장",
      "address": "대구 동구 신암동  294번지",
      "method": "auto",
      "lat": 35.879074,
      "lng": 128.62872
    },
    {
      "rank": 1,
      "name": "로또복권구암점",
      "address": "대구 북구 침산로 153 명성푸르지오 상가 103동 B2호",
      "method": "auto",
      "lat": 35.889423,
      "lng": 128.59015
    },
    {
      "rank": 1,
      "name": "아이러브복권방",
      "address": "울산 중구 유곡로 19-1",
      "method": "auto",
      "lat": 35.55638,
      "lng": 129.30725
    },
    {
      "rank": 1,
      "name": "종합자동차매매상사",
      "address": "전남 해남군 해남로 34 종합복권방편의점",
      "method": "auto",
      "lat": 34.570763,
      "lng": 126.61092
    }
  ]
}