{
  "round": 327,
  "date": "2009-03-07",
  "nums": [
    6,
    12,
    13,
    17,
    32,
    44
  ],
  "bonus": 24,
  "firstWinAmount": 882674750,
  "firstWinners": 12,
  "totalSales": 45791560000,
  "prizes": {
    "first": {
      "amount": 882674750,
      "winners": 12
    },
    "second": {
      "amount": 45265372,
      "winners": 39
    },
    "third": {
      "amount": 1421377,
      "winners": 1242
    },
    "fourth": {
      "amount": 55515,
      "winners": 63599
    },
    "fifth": {
      "amount": 5000,
      "winners": 1048457
    }
  },
  "methodCounts": {
    "auto": 4,
    "manual": 8,
    "mixed": 0
  },
  "topStores": [
    {
      "rank": 1,
      "name": "노다지복권방",
      "address": "서울 강동구 천호대로170길 47 1층",
      "method": "manual",
      "lat": 37.53326,
      "lng": 127.132614
    },
    {
      "rank": 1,
      "name": "복권나라",
      "address": "서울 중구 남대문로5가  12-5",
      "method": "manual",
      "lat": 37.55862,
      "lng": 126.975
    },
    {
      "rank": 1,
      "name": "대성기획",
      "address": "경기 용인시 기흥구 구성로 75-1",
      "method": "auto",
      "lat": 37.29493,
      "lng": 127.1179
    },
    {
      "rank": 1,
      "name": "대박복권",
      "address": "경기 의왕시 내손동  683-10",
      "method": "auto",
      "lat": 37.386047,
      "lng": 126.98088
    },
    {
      "rank": 1,
      "name": "올인(allin)",
      "address": "경기 화성시 3.1만세로 1147",
      "method": "auto",
      "lat": 37.135284,
      "lng": 126.910614
    },
    {
      "rank": 1,
      "name": "반딧불로또",
      "address": "전북 무주군 무주읍 읍내리 읍내리 249-4",
      "method": "manual",
      "lat": 36.007782,
      "lng": 127.663
    },
    {
      "rank": 1,
      "name": "복권나라",
      "address": "전남 목포시 당가두로14번길 47-1 103호 복권나라",
      "method": "auto",
      "lat": 34.807583,
      "lng": 126.43719
    },
    {
      "rank": 1,
      "name": "GS25(양산문성)",
      "address": "경남 양산시 평산동  31-5",
      "method": "manual",
      "lat": 35.384815,
      "lng": 129.15508
    },
    {
      "rank": 1,
      "name": "GS25(양산문성)",
      "address": "경남 양산시 평산동  31-5",
      "method": "manual",
      "lat": 35.384815,
      "lng": 129.15508
    },
    {
      "rank": 1,
      "name": "GS25(양산문성)",
      "address": "경남 양산시 평산동  31-5",
      "method": "manual",
      "lat": 35.384815,
      "lng": 129.15508
    },
    {
      "rank": 1,
      "name": "GS25(양산문성)",
      "address": "경남 양산시 평산동  31-5",
      "method": "manual",
      "lat": 35.384815,
      "lng": 129.15508
    },
    {
      "rank": 1,
      "name": "GS25(양산문성)",
      "address": "경남 양산시 평산동  31-5",
      "method": "manual",
      "lat": 35.384815,
      "lng": 129.15508
    }
  ]
}