{
  "round": 335,
  "date": "2009-05-02",
  "nums": [
    5,
    9,
    16,
    23,
    26,
    45
  ],
  "bonus": 21,
  "firstWinAmount": 2037492480,
  "firstWinners": 5,
  "totalSales": 43977478000,
  "prizes": {
    "first": {
      "amount": 2037492480,
      "winners": 5
    },
    "second": {
      "amount": 60639658,
      "winners": 28
    },
    "third": {
      "amount": 1389453,
      "winners": 1222
    },
    "fourth": {
      "amount": 56057,
      "winners": 60578
    },
    "fifth": {
      "amount": 5000,
      "winners": 1001927
    }
  },
  "methodCounts": {
    "auto": 5,
    "manual": 0,
    "mixed": 0
  },
  "topStores": [
    {
      "rank": 1,
      "name": "복권방",
      "address": "서울 강동구 천호대로176길 10-3",
      "method": "auto",
      "lat": 37.53383,
      "lng": 127.13603
    },
    {
      "rank": 1,
      "name": "노다지복권방",
      "address": "부산 부산진구 부암동  541-23",
      "method": "auto",
      "lat": 35.17029,
      "lng": 129.03757
    },
    {
      "rank": 1,
      "name": "25시슈퍼",
      "address": "경기 시흥시 함송로14번길 13-17 홍익프라자1층107호",
      "method": "auto",
      "lat": 37.362453,
      "lng": 126.72994
    },
    {
      "rank": 1,
      "name": "GS25(경산사동)",
      "address": "경북 경산시 삼풍동  509-4",
      "method": "auto",
      "lat": 35.821297,
      "lng": 128.75475
    },
    {
      "rank": 1,
      "name": "목화휴게소",
      "address": "경남 사천시 사천대로 912",
      "method": "auto",
      "lat": 35.0018,
      "lng": 128.05415
    }
  ]
}