{
  "round": 340,
  "date": "2009-06-06",
  "nums": [
    18,
    24,
    26,
    29,
    34,
    38
  ],
  "bonus": 32,
  "firstWinAmount": 1439393186,
  "firstWinners": 7,
  "totalSales": 42892121000,
  "prizes": {
    "first": {
      "amount": 1439393186,
      "winners": 7
    },
    "second": {
      "amount": 47979773,
      "winners": 35
    },
    "third": {
      "amount": 1492705,
      "winners": 1125
    },
    "fourth": {
      "amount": 59752,
      "winners": 56209
    },
    "fifth": {
      "amount": 5000,
      "winners": 930628
    }
  },
  "methodCounts": {
    "auto": 4,
    "manual": 3,
    "mixed": 0
  },
  "topStores": [
    {
      "rank": 1,
      "name": "복권방",
      "address": "서울 광진구 광장동  453-1삼성상가1층",
      "method": "manual",
      "lat": 37.54239,
      "lng": 127.10204
    },
    {
      "rank": 1,
      "name": "GS25(분당성원)",
      "address": "경기 성남시 분당구 금곡동 159한국프라자112 113호",
      "method": "auto",
      "lat": 37.351154,
      "lng": 127.10948
    },
    {
      "rank": 1,
      "name": "대호상사",
      "address": "경기 성남시 분당구 야탑동 355-1세화2001빌딩107",
      "method": "auto",
      "lat": 37.411163,
      "lng": 127.12681
    },
    {
      "rank": 1,
      "name": "주택복권방",
      "address": "경기 안양시 동안구 흥안대로145번길 77 77",
      "method": "manual",
      "lat": 37.374123,
      "lng": 126.95816
    },
    {
      "rank": 1,
      "name": "만세복권방",
      "address": "경기 의정부시 신곡동  473-2성원상가104",
      "method": "manual",
      "lat": 37.752926,
      "lng": 127.04363
    },
    {
      "rank": 1,
      "name": "GS25(이천대월)",
      "address": "경기 이천시 대월면 사동리 사동리 347-138",
      "method": "auto",
      "lat": 37.24438,
      "lng": 127.49463
    },
    {
      "rank": 1,
      "name": "소답시내버스매표소",
      "address": "경남 창원시 의창구 의안로2번길 17 가판",
      "method": "auto",
      "lat": 35.261776,
      "lng": 128.62564
    }
  ]
}