{
  "round": 354,
  "date": "2009-09-12",
  "nums": [
    14,
    19,
    36,
    43,
    44,
    45
  ],
  "bonus": 1,
  "firstWinAmount": 2124464340,
  "firstWinners": 5,
  "totalSales": 44709689000,
  "prizes": {
    "first": {
      "amount": 2124464340,
      "winners": 5
    },
    "second": {
      "amount": 52070205,
      "winners": 34
    },
    "third": {
      "amount": 1745944,
      "winners": 1014
    },
    "fourth": {
      "amount": 65187,
      "winners": 54318
    },
    "fifth": {
      "amount": 5000,
      "winners": 930195
    }
  },
  "methodCounts": {
    "auto": 5,
    "manual": 0,
    "mixed": 0
  },
  "topStores": [
    {
      "rank": 1,
      "name": "-",
      "address": "서울 강남구 선릉로 519 삼능빌딩",
      "method": "auto",
      "lat": 37.505875,
      "lng": 127.048004
    },
    {
      "rank": 1,
      "name": "효원당슈퍼",
      "address": "부산 금정구 부산대학로 48 복권판매점",
      "method": "auto",
      "lat": 35.231426,
      "lng": 129.08607
    },
    {
      "rank": 1,
      "name": "복권이야기",
      "address": "대구 동구 신천동  740-20",
      "method": "auto",
      "lat": 35.878857,
      "lng": 128.73192
    },
    {
      "rank": 1,
      "name": "GS25(중촌현대)",
      "address": "대전 중구 중촌동  17-2",
      "method": "auto",
      "lat": 36.337418,
      "lng": 127.4125
    },
    {
      "rank": 1,
      "name": "희망복권방",
      "address": "경기 의정부시 호원동  423 대명빌딩 1층",
      "method": "auto",
      "lat": 37.7257,
      "lng": 127.049255
    }
  ]
}