{
  "round": 416,
  "date": "2010-11-20",
  "nums": [
    5,
    6,
    8,
    11,
    22,
    26
  ],
  "bonus": 44,
  "firstWinAmount": 1072037100,
  "firstWinners": 10,
  "totalSales": 46854806000,
  "prizes": {
    "first": {
      "amount": 1072037100,
      "winners": 10
    },
    "second": {
      "amount": 55835266,
      "winners": 32
    },
    "third": {
      "amount": 1190359,
      "winners": 1501
    },
    "fourth": {
      "amount": 50000,
      "winners": 70470
    },
    "fifth": {
      "amount": 5000,
      "winners": 1122015
    }
  },
  "methodCounts": {
    "auto": 7,
    "manual": 3,
    "mixed": 0
  },
  "topStores": [
    {
      "rank": 1,
      "name": "형제상회",
      "address": "서울 동대문구 무학로 92",
      "method": "manual",
      "lat": 37.57249,
      "lng": 127.03075
    },
    {
      "rank": 1,
      "name": "월드24시",
      "address": "서울 은평구 통일로 855-15",
      "method": "auto",
      "lat": 37.61925,
      "lng": 126.919785
    },
    {
      "rank": 1,
      "name": "로또",
      "address": "서울 중구 신당동  133-14",
      "method": "auto",
      "lat": 37.56378,
      "lng": 127.0194
    },
    {
      "rank": 1,
      "name": "복권천국",
      "address": "대구 중구 달구벌대로 2214",
      "method": "auto",
      "lat": 35.862396,
      "lng": 128.60524
    },
    {
      "rank": 1,
      "name": "복권나라",
      "address": "인천 서구 거북로 80",
      "method": "auto",
      "lat": 37.503014,
      "lng": 126.670654
    },
    {
      "rank": 1,
      "name": "차부상회",
      "address": "경기 김포시 통진읍 조강로 50",
      "method": "manual",
      "lat": 37.690342,
      "lng": 126.60031
    },
    {
      "rank": 1,
      "name": "로또복권판매",
      "address": "경기 안산시 상록구 사동 1570-7호박빌딩1층",
      "method": "manual",
      "lat": 37.30082,
      "lng": 126.83875
    },
    {
      "rank": 1,
      "name": "공단휴게실",
      "address": "충북 청주시 흥덕구 복대동 100-15번지",
      "method": "auto",
      "lat": 36.637928,
      "lng": 127.442406
    },
    {
      "rank": 1,
      "name": "롯데마트",
      "address": "전북 군산시 하나운로 43",
      "method": "auto",
      "lat": 35.963455,
      "lng": 126.69942
    },
    {
      "rank": 1,
      "name": "명당편의점",
      "address": "경남 진주시 서장대로 273 1층",
      "method": "auto",
      "lat": 35.192097,
      "lng": 128.06311
    }
  ]
}