{
  "round": 418,
  "date": "2010-12-04",
  "nums": [
    11,
    13,
    15,
    26,
    28,
    34
  ],
  "bonus": 31,
  "firstWinAmount": 1435649766,
  "firstWinners": 8,
  "totalSales": 47058055000,
  "prizes": {
    "first": {
      "amount": 1435649766,
      "winners": 8
    },
    "second": {
      "amount": 41613037,
      "winners": 46
    },
    "third": {
      "amount": 1454560,
      "winners": 1316
    },
    "fourth": {
      "amount": 50000,
      "winners": 61748
    },
    "fifth": {
      "amount": 5000,
      "winners": 1025606
    }
  },
  "methodCounts": {
    "auto": 4,
    "manual": 4,
    "mixed": 0
  },
  "topStores": [
    {
      "rank": 1,
      "name": "대박",
      "address": "서울 강남구 일원로3길 55",
      "method": "manual",
      "lat": 37.49274,
      "lng": 127.08436
    },
    {
      "rank": 1,
      "name": "로또나라",
      "address": "부산 북구 팽나무로 1",
      "method": "manual",
      "lat": 35.20504,
      "lng": 129.00464
    },
    {
      "rank": 1,
      "name": "UBC복권방",
      "address": "울산 남구 봉월로 12",
      "method": "auto",
      "lat": 35.533627,
      "lng": 129.30725
    },
    {
      "rank": 1,
      "name": "다모아로또",
      "address": "경기 안산시 상록구 예술광장1로 54 오성빌딩",
      "method": "manual",
      "lat": 37.328846,
      "lng": 126.84788
    },
    {
      "rank": 1,
      "name": "버스표가판점",
      "address": "경기 안양시 동안구 동안로 125-2 범계역4-1출구앞 버스표가판점",
      "method": "auto",
      "lat": 37.389736,
      "lng": 126.95106
    },
    {
      "rank": 1,
      "name": "장미슈퍼",
      "address": "충남 부여군 부여읍 계백로 265 부여군청 로터리 부근",
      "method": "auto",
      "lat": 36.27629,
      "lng": 126.90941
    },
    {
      "rank": 1,
      "name": "로또복권방",
      "address": "충남 천안시 서북구 쌍용대로 190 상가3호",
      "method": "manual",
      "lat": 36.8143,
      "lng": 127.13485
    },
    {
      "rank": 1,
      "name": "사랑슈퍼",
      "address": "전북 익산시 인북로 241-4",
      "method": "auto",
      "lat": 35.95013,
      "lng": 126.957535
    }
  ]
}