{
  "round": 429,
  "date": "2011-02-19",
  "nums": [
    3,
    23,
    28,
    34,
    39,
    42
  ],
  "bonus": 16,
  "firstWinAmount": 1485904709,
  "firstWinners": 9,
  "totalSales": 53993833000,
  "prizes": {
    "first": {
      "amount": 1485904709,
      "winners": 9
    },
    "second": {
      "amount": 60239381,
      "winners": 37
    },
    "third": {
      "amount": 1604649,
      "winners": 1389
    },
    "fourth": {
      "amount": 50000,
      "winners": 68256
    },
    "fifth": {
      "amount": 5000,
      "winners": 1150652
    }
  },
  "methodCounts": {
    "auto": 9,
    "manual": 0,
    "mixed": 0
  },
  "topStores": [
    {
      "rank": 1,
      "name": "가판점",
      "address": "서울 구로구 경인로3길 지하 64",
      "method": "auto",
      "lat": 37.49136,
      "lng": 126.8214
    },
    {
      "rank": 1,
      "name": "에이스마트",
      "address": "서울 서초구 서초동  1638-11",
      "method": "auto",
      "lat": 37.494537,
      "lng": 127.01953
    },
    {
      "rank": 1,
      "name": "대박복권방",
      "address": "서울 양천구 오목로 233 1층1호",
      "method": "auto",
      "lat": 37.52613,
      "lng": 126.863304
    },
    {
      "rank": 1,
      "name": "종로3가1호선역2번출구가로판매점82호",
      "address": "서울 종로구 돈화문로 23 가판",
      "method": "auto",
      "lat": 37.5707,
      "lng": 126.991875
    },
    {
      "rank": 1,
      "name": "셀프카메라",
      "address": "부산 부산진구 가야대로443번길 30",
      "method": "auto",
      "lat": 35.154446,
      "lng": 129.02167
    },
    {
      "rank": 1,
      "name": "우미슈퍼",
      "address": "광주 서구 풍암순환로 183 우미아파트상가118동-101호",
      "method": "auto",
      "lat": 35.12672,
      "lng": 126.88115
    },
    {
      "rank": 1,
      "name": "샘복권방",
      "address": "울산 울주군 천상중앙길 69",
      "method": "auto",
      "lat": 35.56302,
      "lng": 129.22873
    },
    {
      "rank": 1,
      "name": "평택포승점로또",
      "address": "경기 평택시 여술로 24 CU편의점 내",
      "method": "auto",
      "lat": 36.988068,
      "lng": 126.84539
    },
    {
      "rank": 1,
      "name": "로또복권2공단점",
      "address": "충남 천안시 서북구 차암동 12-3",
      "method": "auto",
      "lat": 36.854877,
      "lng": 127.120186
    }
  ]
}