{
  "round": 431,
  "date": "2011-03-05",
  "nums": [
    18,
    22,
    25,
    31,
    38,
    45
  ],
  "bonus": 6,
  "firstWinAmount": 1268434013,
  "firstWinners": 10,
  "totalSales": 51661947000,
  "prizes": {
    "first": {
      "amount": 1268434013,
      "winners": 10
    },
    "second": {
      "amount": 49164110,
      "winners": 43
    },
    "third": {
      "amount": 1581195,
      "winners": 1337
    },
    "fourth": {
      "amount": 50000,
      "winners": 66865
    },
    "fifth": {
      "amount": 5000,
      "winners": 1115054
    }
  },
  "methodCounts": {
    "auto": 7,
    "manual": 3,
    "mixed": 0
  },
  "topStores": [
    {
      "rank": 1,
      "name": "훼미리마트(대림중앙점)",
      "address": "서울 영등포구 대림로 209 1층",
      "method": "auto",
      "lat": 37.499256,
      "lng": 126.897675
    },
    {
      "rank": 1,
      "name": "노다지복권방",
      "address": "부산 북구 덕천로 287",
      "method": "manual",
      "lat": 35.20986,
      "lng": 129.03535
    },
    {
      "rank": 1,
      "name": "만구수산유통",
      "address": "부산 서구 남부민동  685현대타운1층86호",
      "method": "auto",
      "lat": 35.092636,
      "lng": 129.02446
    },
    {
      "rank": 1,
      "name": "복권명당",
      "address": "대구 동구 경안로 751",
      "method": "auto",
      "lat": 35.869484,
      "lng": 128.71349
    },
    {
      "rank": 1,
      "name": "보경복권",
      "address": "울산 북구 명촌6길 7",
      "method": "auto",
      "lat": 35.558064,
      "lng": 129.36029
    },
    {
      "rank": 1,
      "name": "운수대통",
      "address": "경기 군포시 군포로745번길 24",
      "method": "manual",
      "lat": 37.37093,
      "lng": 126.94142
    },
    {
      "rank": 1,
      "name": "명당슈퍼",
      "address": "경기 수원시 영통구 중부대로 285 김환규산부인과",
      "method": "manual",
      "lat": 37.273994,
      "lng": 127.047226
    },
    {
      "rank": 1,
      "name": "GS25(천안신부)",
      "address": "충남 천안시 동남구 신부동 765번지",
      "method": "auto",
      "lat": 36.81943,
      "lng": 127.15998
    },
    {
      "rank": 1,
      "name": "천하명당복권방.텔레콤",
      "address": "경남 거제시 옥포성안로 60",
      "method": "auto",
      "lat": 34.891693,
      "lng": 128.69492
    },
    {
      "rank": 1,
      "name": "천하명당복권방",
      "address": "경남 창원시 의창구 명서동 50-15",
      "method": "auto",
      "lat": 35.25029,
      "lng": 128.64616
    }
  ]
}