{
  "round": 435,
  "date": "2011-04-02",
  "nums": [
    8,
    16,
    26,
    30,
    38,
    45
  ],
  "bonus": 42,
  "firstWinAmount": 1287550013,
  "firstWinners": 10,
  "totalSales": 52341267000,
  "prizes": {
    "first": {
      "amount": 1287550013,
      "winners": 10
    },
    "second": {
      "amount": 69223119,
      "winners": 31
    },
    "third": {
      "amount": 1504851,
      "winners": 1426
    },
    "fourth": {
      "amount": 50000,
      "winners": 67838
    },
    "fifth": {
      "amount": 5000,
      "winners": 1122280
    }
  },
  "methodCounts": {
    "auto": 6,
    "manual": 4,
    "mixed": 0
  },
  "topStores": [
    {
      "rank": 1,
      "name": "복드림복권방",
      "address": "서울 강동구 상암로 99",
      "method": "manual",
      "lat": 37.547485,
      "lng": 127.13399
    },
    {
      "rank": 1,
      "name": "나라시스컴",
      "address": "서울 영등포구 영등포동5가  18-58영신상가1호",
      "method": "auto",
      "lat": 37.519783,
      "lng": 126.9067
    },
    {
      "rank": 1,
      "name": "로또복권",
      "address": "대구 북구 연암로22길 1 1층 복권판매점",
      "method": "manual",
      "lat": 35.94375,
      "lng": 128.56425
    },
    {
      "rank": 1,
      "name": "복권천국",
      "address": "대전 대덕구 중리동  165-17",
      "method": "manual",
      "lat": 36.361015,
      "lng": 127.426735
    },
    {
      "rank": 1,
      "name": "드림로또",
      "address": "대전 중구 대둔산로 365-2",
      "method": "auto",
      "lat": 36.30205,
      "lng": 127.385864
    },
    {
      "rank": 1,
      "name": "희망을주는사람",
      "address": "경기 용인시 처인구 양지로 111 1층 상가",
      "method": "auto",
      "lat": 37.23453,
      "lng": 127.28051
    },
    {
      "rank": 1,
      "name": "복권마을",
      "address": "강원 강릉시 주문진읍  교항리 118",
      "method": "auto",
      "lat": 37.885292,
      "lng": 128.8254
    },
    {
      "rank": 1,
      "name": "서울로또방",
      "address": "충북 옥천군 삼금로 8",
      "method": "auto",
      "lat": 36.29949,
      "lng": 127.56668
    },
    {
      "rank": 1,
      "name": "로또온양온천점",
      "address": "충남 아산시 읍내동  212",
      "method": "manual",
      "lat": 36.808167,
      "lng": 126.98127
    },
    {
      "rank": 1,
      "name": "봉명주유소 복권전문점",
      "address": "경북 문경시 마성면  남호리 152-2",
      "method": "auto",
      "lat": 36.709103,
      "lng": 128.12195
    }
  ]
}