{
  "round": 436,
  "date": "2011-04-09",
  "nums": [
    9,
    14,
    20,
    22,
    33,
    34
  ],
  "bonus": 28,
  "firstWinAmount": 1512266579,
  "firstWinners": 8,
  "totalSales": 50869017000,
  "prizes": {
    "first": {
      "amount": 1512266579,
      "winners": 8
    },
    "second": {
      "amount": 45826260,
      "winners": 44
    },
    "third": {
      "amount": 1414987,
      "winners": 1425
    },
    "fourth": {
      "amount": 50000,
      "winners": 70742
    },
    "fifth": {
      "amount": 5000,
      "winners": 1153313
    }
  },
  "methodCounts": {
    "auto": 5,
    "manual": 3,
    "mixed": 0
  },
  "topStores": [
    {
      "rank": 1,
      "name": "GS25(양평역점)",
      "address": "서울 영등포구 양평동3가  23-4 월드프라자103호",
      "method": "auto",
      "lat": 37.526154,
      "lng": 126.886086
    },
    {
      "rank": 1,
      "name": "제이복권방",
      "address": "서울 종로구 종로 225-1 평창빌딩 1층 103호",
      "method": "manual",
      "lat": 37.571293,
      "lng": 127.00283
    },
    {
      "rank": 1,
      "name": "로데오복권방",
      "address": "경기 고양시 일산동구 무궁화로 40 우림보보카운티108",
      "method": "manual",
      "lat": 37.662975,
      "lng": 126.76896
    },
    {
      "rank": 1,
      "name": "유방매표소",
      "address": "경기 용인시 처인구 유방동 310-10",
      "method": "manual",
      "lat": 37.258778,
      "lng": 127.212906
    },
    {
      "rank": 1,
      "name": "행운방",
      "address": "경기 용인시 기흥구 보정동 1804-4엔림프라자101호",
      "method": "auto",
      "lat": 37.320713,
      "lng": 127.115105
    },
    {
      "rank": 1,
      "name": "천하명당복권방",
      "address": "경기 화성시 남양시장로 83",
      "method": "auto",
      "lat": 37.209915,
      "lng": 126.81828
    },
    {
      "rank": 1,
      "name": "로또판매",
      "address": "경북 경산시 경안로 145",
      "method": "auto",
      "lat": 35.820534,
      "lng": 128.73775
    },
    {
      "rank": 1,
      "name": "영남통상",
      "address": "경북 성주군 성주읍 성주로 3228,(경산리)",
      "method": "auto",
      "lat": 35.91804,
      "lng": 128.28683
    }
  ]
}