{
  "round": 437,
  "date": "2011-04-16",
  "nums": [
    11,
    16,
    29,
    38,
    41,
    44
  ],
  "bonus": 21,
  "firstWinAmount": 2096245438,
  "firstWinners": 6,
  "totalSales": 50798417000,
  "prizes": {
    "first": {
      "amount": 2096245438,
      "winners": 6
    },
    "second": {
      "amount": 63522590,
      "winners": 33
    },
    "third": {
      "amount": 1630051,
      "winners": 1286
    },
    "fourth": {
      "amount": 50000,
      "winners": 64531
    },
    "fifth": {
      "amount": 5000,
      "winners": 1080539
    }
  },
  "methodCounts": {
    "auto": 4,
    "manual": 2,
    "mixed": 0
  },
  "topStores": [
    {
      "rank": 1,
      "name": "또와식품",
      "address": "서울 강서구 양천로 694",
      "method": "auto",
      "lat": 37.55008,
      "lng": 126.872826
    },
    {
      "rank": 1,
      "name": "청솔마트",
      "address": "서울 동대문구 용두동  727-4",
      "method": "auto",
      "lat": 37.582,
      "lng": 127.028946
    },
    {
      "rank": 1,
      "name": "드림마트",
      "address": "인천 미추홀구 인하로 211",
      "method": "auto",
      "lat": 37.44875,
      "lng": 126.671455
    },
    {
      "rank": 1,
      "name": "행운마트",
      "address": "인천 부평구 배곶남로9번길 4",
      "method": "auto",
      "lat": 37.47179,
      "lng": 126.69535
    },
    {
      "rank": 1,
      "name": "파란만장복권방",
      "address": "경기 화성시 진안동  878-4번지 101호",
      "method": "manual",
      "lat": 37.21241,
      "lng": 127.038826
    },
    {
      "rank": 1,
      "name": "로또판매",
      "address": "전남 영광군 영광읍  남천리 324-10",
      "method": "manual",
      "lat": 35.27573,
      "lng": 126.503525
    }
  ]
}