{
  "round": 439,
  "date": "2011-04-30",
  "nums": [
    17,
    20,
    30,
    31,
    37,
    40
  ],
  "bonus": 25,
  "firstWinAmount": 1900077375,
  "firstWinners": 6,
  "totalSales": 49680708000,
  "prizes": {
    "first": {
      "amount": 1900077375,
      "winners": 6
    },
    "second": {
      "amount": 57578103,
      "winners": 33
    },
    "third": {
      "amount": 1322253,
      "winners": 1437
    },
    "fourth": {
      "amount": 50000,
      "winners": 75335
    },
    "fifth": {
      "amount": 5000,
      "winners": 1174597
    }
  },
  "methodCounts": {
    "auto": 5,
    "manual": 1,
    "mixed": 0
  },
  "topStores": [
    {
      "rank": 1,
      "name": "압구정로또",
      "address": "서울 강남구 삼성동  112위드미",
      "method": "manual",
      "lat": 37.47358,
      "lng": 127.10301
    },
    {
      "rank": 1,
      "name": "한경종합광고",
      "address": "서울 송파구 백제고분로 198 정민빌딩",
      "method": "auto",
      "lat": 37.50393,
      "lng": 127.08855
    },
    {
      "rank": 1,
      "name": "부일카서비스",
      "address": "부산 동구 자성로133번길 35",
      "method": "auto",
      "lat": 35.140015,
      "lng": 129.06306
    },
    {
      "rank": 1,
      "name": "로또25시",
      "address": "부산 사하구 하단2동  525-3",
      "method": "auto",
      "lat": 35.10653,
      "lng": 128.96504
    },
    {
      "rank": 1,
      "name": "우리들초이스점",
      "address": "울산 남구 삼산동  215-12 1층",
      "method": "auto",
      "lat": 35.541096,
      "lng": 129.35075
    },
    {
      "rank": 1,
      "name": "상우상사",
      "address": "경남 통영시 중앙동  54-21",
      "method": "auto",
      "lat": 34.877377,
      "lng": 128.42078
    }
  ]
}