{
  "round": 450,
  "date": "2011-07-16",
  "nums": [
    6,
    14,
    19,
    21,
    23,
    31
  ],
  "bonus": 13,
  "firstWinAmount": 1990391625,
  "firstWinners": 6,
  "totalSales": 49732036000,
  "prizes": {
    "first": {
      "amount": 1990391625,
      "winners": 6
    },
    "second": {
      "amount": 58540931,
      "winners": 34
    },
    "third": {
      "amount": 1475458,
      "winners": 1349
    },
    "fourth": {
      "amount": 50000,
      "winners": 67461
    },
    "fifth": {
      "amount": 5000,
      "winners": 1113967
    }
  },
  "methodCounts": {
    "auto": 6,
    "manual": 0,
    "mixed": 0
  },
  "topStores": [
    {
      "rank": 1,
      "name": "마이마트",
      "address": "인천 서구 탁옥로 76 한국상가제1층101호",
      "method": "auto",
      "lat": 37.54315,
      "lng": 126.67822
    },
    {
      "rank": 1,
      "name": "SoundWave",
      "address": "경기 광명시 오리로 956",
      "method": "auto",
      "lat": 37.47889,
      "lng": 126.85691
    },
    {
      "rank": 1,
      "name": "천하명당",
      "address": "경기 안산시 상록구 충장로 590",
      "method": "auto",
      "lat": 37.330555,
      "lng": 126.851295
    },
    {
      "rank": 1,
      "name": "아름다운방",
      "address": "경기 의정부시 금오동  473-1플래티넘프라자1층107",
      "method": "auto",
      "lat": 37.752235,
      "lng": 127.06957
    },
    {
      "rank": 1,
      "name": "대소원로또",
      "address": "충북 충주시 대소원면 중원대로 4373 휴게소내 컨테이너",
      "method": "auto",
      "lat": 36.973255,
      "lng": 127.82359
    },
    {
      "rank": 1,
      "name": "무진장로또",
      "address": "제주 제주시 일도2동  1047-4",
      "method": "auto",
      "lat": 33.511913,
      "lng": 126.53149
    }
  ]
}