{
  "round": 453,
  "date": "2011-08-06",
  "nums": [
    12,
    24,
    33,
    38,
    40,
    42
  ],
  "bonus": 30,
  "firstWinAmount": 2262732375,
  "firstWinners": 5,
  "totalSales": 48055125000,
  "prizes": {
    "first": {
      "amount": 2262732375,
      "winners": 5
    },
    "second": {
      "amount": 52378065,
      "winners": 36
    },
    "third": {
      "amount": 1335419,
      "winners": 1412
    },
    "fourth": {
      "amount": 50000,
      "winners": 69250
    },
    "fifth": {
      "amount": 5000,
      "winners": 1096036
    }
  },
  "methodCounts": {
    "auto": 3,
    "manual": 2,
    "mixed": 0
  },
  "topStores": [
    {
      "rank": 1,
      "name": "훼미리마트(자양태성점)",
      "address": "서울 광진구 자양동  553-489101 102호 792",
      "method": "manual",
      "lat": 37.533417,
      "lng": 127.070404
    },
    {
      "rank": 1,
      "name": "경성식품",
      "address": "서울 동대문구 망우로21길 52",
      "method": "auto",
      "lat": 37.590435,
      "lng": 127.06028
    },
    {
      "rank": 1,
      "name": "우리들중구청점",
      "address": "울산 중구 복산동  191-6",
      "method": "auto",
      "lat": 35.55328,
      "lng": 129.33217
    },
    {
      "rank": 1,
      "name": "가판점",
      "address": "경기 군포시 군포로 541-2 인도 앞 가판대",
      "method": "auto",
      "lat": 37.354385,
      "lng": 126.9463
    },
    {
      "rank": 1,
      "name": "복권전문점",
      "address": "경기 수원시 팔달구 매산로 17",
      "method": "manual",
      "lat": 37.2676,
      "lng": 127.00333
    }
  ]
}