{
  "round": 474,
  "date": "2011-12-31",
  "nums": [
    4,
    13,
    18,
    31,
    33,
    45
  ],
  "bonus": 43,
  "firstWinAmount": 936690800,
  "firstWinners": 15,
  "totalSales": 58978482000,
  "prizes": {
    "first": {
      "amount": 936690800,
      "winners": 15
    },
    "second": {
      "amount": 48785980,
      "winners": 48
    },
    "third": {
      "amount": 1347369,
      "winners": 1738
    },
    "fourth": {
      "amount": 50000,
      "winners": 81500
    },
    "fifth": {
      "amount": 5000,
      "winners": 1336085
    }
  },
  "methodCounts": {
    "auto": 6,
    "manual": 9,
    "mixed": 0
  },
  "topStores": [
    {
      "rank": 1,
      "name": "인더라인북가좌점",
      "address": "서울 서대문구 응암로 42 1층101호",
      "method": "auto",
      "lat": 37.57712,
      "lng": 126.90929
    },
    {
      "rank": 1,
      "name": "농심가슈퍼마트",
      "address": "서울 양천구 목동중앙본로 54 1층",
      "method": "manual",
      "lat": 37.540688,
      "lng": 126.869026
    },
    {
      "rank": 1,
      "name": "바이더웨이녹번중앙점",
      "address": "서울 은평구 갈현로 88 은평성심의원 1층 우측 두번째 점포",
      "method": "manual",
      "lat": 37.60575,
      "lng": 126.91073
    },
    {
      "rank": 1,
      "name": "바이더웨이녹번중앙점",
      "address": "서울 은평구 갈현로 88 은평성심의원 1층 우측 두번째 점포",
      "method": "manual",
      "lat": 37.60575,
      "lng": 126.91073
    },
    {
      "rank": 1,
      "name": "바이더웨이녹번중앙점",
      "address": "서울 은평구 갈현로 88 은평성심의원 1층 우측 두번째 점포",
      "method": "manual",
      "lat": 37.60575,
      "lng": 126.91073
    },
    {
      "rank": 1,
      "name": "바이더웨이녹번중앙점",
      "address": "서울 은평구 갈현로 88 은평성심의원 1층 우측 두번째 점포",
      "method": "manual",
      "lat": 37.60575,
      "lng": 126.91073
    },
    {
      "rank": 1,
      "name": "바이더웨이녹번중앙점",
      "address": "서울 은평구 갈현로 88 은평성심의원 1층 우측 두번째 점포",
      "method": "manual",
      "lat": 37.60575,
      "lng": 126.91073
    },
    {
      "rank": 1,
      "name": "로또복권(세종식품)",
      "address": "서울 중구 충무로2가  62-8",
      "method": "auto",
      "lat": 37.561314,
      "lng": 126.987495
    },
    {
      "rank": 1,
      "name": "정발산복권전문점",
      "address": "경기 고양시 일산동구 정발산동 1204일성종합상가104호",
      "method": "auto",
      "lat": 37.673046,
      "lng": 126.77767
    },
    {
      "rank": 1,
      "name": "대박로또복권",
      "address": "경기 김포시 통진읍 김포대로 2449",
      "method": "auto",
      "lat": 37.696945,
      "lng": 126.577286
    },
    {
      "rank": 1,
      "name": "정우",
      "address": "경기 용인시 처인구 백옥대로 574 C동상가",
      "method": "manual",
      "lat": 37.18781,
      "lng": 127.20619
    },
    {
      "rank": 1,
      "name": "황금로또",
      "address": "강원 원주시 현충로318번길 35 1층",
      "method": "manual",
      "lat": 37.381992,
      "lng": 127.950325
    },
    {
      "rank": 1,
      "name": "럭키뱅크복권방",
      "address": "충북 청주시 서원구 청남로 2092-1",
      "method": "auto",
      "lat": 36.61884,
      "lng": 127.48729
    },
    {
      "rank": 1,
      "name": "로또복권방",
      "address": "충남 당진시 당진중앙1로 21",
      "method": "auto",
      "lat": 36.892937,
      "lng": 126.62633
    },
    {
      "rank": 1,
      "name": "새롬",
      "address": "경남 창원시 마산합포구 수산1길 181 새롬미리내아파트 새롬미리내상가113호",
      "method": "manual",
      "lat": 35.202972,
      "lng": 128.57985
    }
  ]
}