{
  "round": 486,
  "date": "2012-03-24",
  "nums": [
    1,
    2,
    23,
    25,
    38,
    40
  ],
  "bonus": 43,
  "firstWinAmount": 1008634125,
  "firstWinners": 13,
  "totalSales": 54540823000,
  "prizes": {
    "first": {
      "amount": 1008634125,
      "winners": 13
    },
    "second": {
      "amount": 75357722,
      "winners": 29
    },
    "third": {
      "amount": 1455946,
      "winners": 1501
    },
    "fourth": {
      "amount": 50000,
      "winners": 72658
    },
    "fifth": {
      "amount": 5000,
      "winners": 1230904
    }
  },
  "methodCounts": {
    "auto": 9,
    "manual": 4,
    "mixed": 0
  },
  "topStores": [
    {
      "rank": 1,
      "name": "태원정보통신",
      "address": "서울 중랑구 봉우재로33길 80,(상봉동)",
      "method": "auto",
      "lat": 37.595444,
      "lng": 127.08968
    },
    {
      "rank": 1,
      "name": "슈퍼복권나라",
      "address": "부산 사하구 하신번영로 370",
      "method": "auto",
      "lat": 35.114147,
      "lng": 128.96078
    },
    {
      "rank": 1,
      "name": "다사복권방",
      "address": "대구 달성군 옥포면  간경리    848번지",
      "method": "auto",
      "lat": 35.790443,
      "lng": 128.4709
    },
    {
      "rank": 1,
      "name": "대박찬스",
      "address": "경기 남양주시 진접읍 장현로 111 1층1호",
      "method": "auto",
      "lat": 37.719795,
      "lng": 127.18393
    },
    {
      "rank": 1,
      "name": "컬투패밀리중동점",
      "address": "경기 성남시 중원구 중동 2009-1번지",
      "method": "auto",
      "lat": 37.442898,
      "lng": 127.15573
    },
    {
      "rank": 1,
      "name": "대박복권방",
      "address": "경기 안산시 단원구 신길중앙로1길 40 101호",
      "method": "manual",
      "lat": 37.336105,
      "lng": 126.76227
    },
    {
      "rank": 1,
      "name": "노다지복권방",
      "address": "경기 오산시 오산로 298-1",
      "method": "manual",
      "lat": 37.1541,
      "lng": 127.068794
    },
    {
      "rank": 1,
      "name": "둔전행운복권방",
      "address": "경기 용인시 처인구 포곡로 110",
      "method": "auto",
      "lat": 37.26922,
      "lng": 127.21764
    },
    {
      "rank": 1,
      "name": "SK뷰 할인마트",
      "address": "경기 의정부시 가능동  656-1외1필지단지내상가101호",
      "method": "manual",
      "lat": 37.728767,
      "lng": 127.03901
    },
    {
      "rank": 1,
      "name": "복권나라",
      "address": "강원 삼척시 도계읍  도계리    393-1",
      "method": "auto",
      "lat": 37.234924,
      "lng": 129.04465
    },
    {
      "rank": 1,
      "name": "엔조이로또",
      "address": "경북 포항시 남구 문덕로 3 1층  폰공장  내",
      "method": "auto",
      "lat": 35.962307,
      "lng": 129.4033
    },
    {
      "rank": 1,
      "name": "늘봄꽃난식물원",
      "address": "경남 진주시 솔밭로 80",
      "method": "manual",
      "lat": 35.176178,
      "lng": 128.10738
    },
    {
      "rank": 1,
      "name": "행운로또복권방",
      "address": "경남 창원시 마산합포구 합포로 41-1 옥원묵화학원 1층",
      "method": "auto",
      "lat": 35.204197,
      "lng": 128.57634
    }
  ]
}