{
  "round": 488,
  "date": "2012-04-07",
  "nums": [
    2,
    8,
    17,
    30,
    31,
    38
  ],
  "bonus": 25,
  "firstWinAmount": 1330393575,
  "firstWinners": 10,
  "totalSales": 54213092000,
  "prizes": {
    "first": {
      "amount": 1330393575,
      "winners": 10
    },
    "second": {
      "amount": 67191595,
      "winners": 33
    },
    "third": {
      "amount": 1648567,
      "winners": 1345
    },
    "fourth": {
      "amount": 50000,
      "winners": 69224
    },
    "fifth": {
      "amount": 5000,
      "winners": 1181353
    }
  },
  "methodCounts": {
    "auto": 8,
    "manual": 2,
    "mixed": 0
  },
  "topStores": [
    {
      "rank": 1,
      "name": "대박가판장",
      "address": "서울 강동구 양재대로 1627 가판점",
      "method": "auto",
      "lat": 37.55092,
      "lng": 127.143715
    },
    {
      "rank": 1,
      "name": "영광정보통신",
      "address": "서울 성북구 화랑로 92 1층 우측1호",
      "method": "auto",
      "lat": 37.602676,
      "lng": 127.0425
    },
    {
      "rank": 1,
      "name": "부자나라",
      "address": "인천 계양구 효서로112번길 3-1",
      "method": "auto",
      "lat": 37.527447,
      "lng": 126.70827
    },
    {
      "rank": 1,
      "name": "복권명당",
      "address": "대전 서구 만년남로3번길 164,(만년동)",
      "method": "manual",
      "lat": 36.366486,
      "lng": 127.37305
    },
    {
      "rank": 1,
      "name": "로토피아",
      "address": "경기 광명시 오리로 371 상가1층102호",
      "method": "auto",
      "lat": 37.435596,
      "lng": 126.87925
    },
    {
      "rank": 1,
      "name": "당첨로또복권",
      "address": "경기 안양시 동안구 포도원로 4",
      "method": "auto",
      "lat": 37.361946,
      "lng": 126.96251
    },
    {
      "rank": 1,
      "name": "로또복권방",
      "address": "충남 당진시 당진중앙1로 21",
      "method": "auto",
      "lat": 36.892937,
      "lng": 126.62633
    },
    {
      "rank": 1,
      "name": "문덕대박로또",
      "address": "경북 포항시 남구 오천읍 문덕리   문덕리  176-7",
      "method": "auto",
      "lat": 35.96353,
      "lng": 129.40263
    },
    {
      "rank": 1,
      "name": "목화휴게소",
      "address": "경남 사천시 사천대로 912",
      "method": "auto",
      "lat": 35.0018,
      "lng": 128.05415
    },
    {
      "rank": 1,
      "name": "해피데이복권방",
      "address": "경남 의령군 의령읍 충익로 39",
      "method": "manual",
      "lat": 35.319485,
      "lng": 128.26187
    }
  ]
}