{
  "round": 511,
  "date": "2012-09-15",
  "nums": [
    3,
    7,
    14,
    23,
    26,
    42
  ],
  "bonus": 24,
  "firstWinAmount": 2165579250,
  "firstWinners": 6,
  "totalSales": 53970308000,
  "prizes": {
    "first": {
      "amount": 2165579250,
      "winners": 6
    },
    "second": {
      "amount": 58529169,
      "winners": 37
    },
    "third": {
      "amount": 1420984,
      "winners": 1524
    },
    "fourth": {
      "amount": 50000,
      "winners": 72310
    },
    "fifth": {
      "amount": 5000,
      "winners": 1209004
    }
  },
  "methodCounts": {
    "auto": 4,
    "manual": 2,
    "mixed": 0
  },
  "topStores": [
    {
      "rank": 1,
      "name": "제이마트",
      "address": "서울 서초구 반포동  19-3번지센트럴씨티125호",
      "method": "auto",
      "lat": 37.50413,
      "lng": 127.00307
    },
    {
      "rank": 1,
      "name": "샛별복권방",
      "address": "서울 중구 동호로10길 12 1층",
      "method": "manual",
      "lat": 37.55443,
      "lng": 127.01192
    },
    {
      "rank": 1,
      "name": "대우로또복권방",
      "address": "인천 부평구 청천동  180-4대우프라자113",
      "method": "auto",
      "lat": 37.513237,
      "lng": 126.70561
    },
    {
      "rank": 1,
      "name": "셀피아",
      "address": "울산 북구 명촌7길 43 복권판매점",
      "method": "auto",
      "lat": 35.553764,
      "lng": 129.35832
    },
    {
      "rank": 1,
      "name": "돌하르방복권",
      "address": "제주 서귀포시 태평로353번길 9",
      "method": "manual",
      "lat": 33.246986,
      "lng": 126.56006
    },
    {
      "rank": 1,
      "name": "행운복권방",
      "address": "제주 제주시 우정로11길 12",
      "method": "auto",
      "lat": 33.48765,
      "lng": 126.4322
    }
  ]
}