{
  "round": 518,
  "date": "2012-11-03",
  "nums": [
    14,
    23,
    30,
    32,
    34,
    38
  ],
  "bonus": 6,
  "firstWinAmount": 2263804125,
  "firstWinners": 6,
  "totalSales": 55321566000,
  "prizes": {
    "first": {
      "amount": 2263804125,
      "winners": 6
    },
    "second": {
      "amount": 66582475,
      "winners": 34
    },
    "third": {
      "amount": 1678135,
      "winners": 1349
    },
    "fourth": {
      "amount": 50000,
      "winners": 71110
    },
    "fifth": {
      "amount": 5000,
      "winners": 1198970
    }
  },
  "methodCounts": {
    "auto": 6,
    "manual": 0,
    "mixed": 0
  },
  "topStores": [
    {
      "rank": 1,
      "name": "배임",
      "address": "서울 용산구 보광로 19 1층",
      "method": "auto",
      "lat": 37.526237,
      "lng": 127.000626
    },
    {
      "rank": 1,
      "name": "초이스마트 작전역점",
      "address": "인천 계양구 주부토로472번길 51 선우아파트 상가동 102호",
      "method": "auto",
      "lat": 37.5344,
      "lng": 126.73251
    },
    {
      "rank": 1,
      "name": "Lotto복권",
      "address": "강원 춘천시 퇴계동  667 7B3L(패밀리마트내)",
      "method": "auto",
      "lat": 37.866093,
      "lng": 127.72451
    },
    {
      "rank": 1,
      "name": "잉크와복권방",
      "address": "충남 천안시 동남구 차돌로 84",
      "method": "auto",
      "lat": 36.802128,
      "lng": 127.139435
    },
    {
      "rank": 1,
      "name": "오태NG24시복권방",
      "address": "경북 구미시 인동가산로 25  1층 아디다스상설매장",
      "method": "auto",
      "lat": 36.10665,
      "lng": 128.41962
    },
    {
      "rank": 1,
      "name": "행운복권",
      "address": "경북 구미시 야은로 763,(신평동)",
      "method": "auto",
      "lat": 36.123886,
      "lng": 128.36266
    }
  ]
}