{
  "round": 530,
  "date": "2013-01-26",
  "nums": [
    16,
    23,
    27,
    29,
    33,
    41
  ],
  "bonus": 22,
  "firstWinAmount": 1231656239,
  "firstWinners": 11,
  "totalSales": 56241083000,
  "prizes": {
    "first": {
      "amount": 1231656239,
      "winners": 11
    },
    "second": {
      "amount": 56450911,
      "winners": 40
    },
    "third": {
      "amount": 1558342,
      "winners": 1449
    },
    "fourth": {
      "amount": 50000,
      "winners": 75595
    },
    "fifth": {
      "amount": 5000,
      "winners": 1255300
    }
  },
  "methodCounts": {
    "auto": 9,
    "manual": 2,
    "mixed": 0
  },
  "topStores": [
    {
      "rank": 1,
      "name": "삼성열쇠공사",
      "address": "서울 동작구 만양로 90-1",
      "method": "auto",
      "lat": 37.511497,
      "lng": 126.94448
    },
    {
      "rank": 1,
      "name": "GS25(신림로점)",
      "address": "서울 동작구 신대방동  344-258",
      "method": "auto",
      "lat": 37.49495,
      "lng": 126.92712
    },
    {
      "rank": 1,
      "name": "통일복권방",
      "address": "서울 송파구 백제고분로7길 6",
      "method": "auto",
      "lat": 37.510223,
      "lng": 127.07944
    },
    {
      "rank": 1,
      "name": "가판점",
      "address": "서울 중구 퇴계로 123",
      "method": "auto",
      "lat": 37.561066,
      "lng": 126.98525
    },
    {
      "rank": 1,
      "name": "가로판매점117호",
      "address": "서울 중구 장충단로 257",
      "method": "auto",
      "lat": 37.567608,
      "lng": 127.00848
    },
    {
      "rank": 1,
      "name": "복권왕국",
      "address": "인천 부평구 동수로 168",
      "method": "manual",
      "lat": 37.485596,
      "lng": 126.73715
    },
    {
      "rank": 1,
      "name": "GS25(중촌현대)",
      "address": "대전 중구 중촌동  17-2",
      "method": "auto",
      "lat": 36.337418,
      "lng": 127.4125
    },
    {
      "rank": 1,
      "name": "LG슈퍼",
      "address": "경기 광명시 연서로 10",
      "method": "manual",
      "lat": 37.48104,
      "lng": 126.863335
    },
    {
      "rank": 1,
      "name": "경희슈퍼",
      "address": "경기 성남시 분당구 야탑로69번길 3 105호",
      "method": "auto",
      "lat": 37.410084,
      "lng": 127.12633
    },
    {
      "rank": 1,
      "name": "황금 복권방",
      "address": "경기 용인시 기흥구 어정로 129 어정프라자 어정프라자 103호",
      "method": "auto",
      "lat": 37.275894,
      "lng": 127.144035
    },
    {
      "rank": 1,
      "name": "복권",
      "address": "경기 의정부시 의정부동  153",
      "method": "auto",
      "lat": 37.73927,
      "lng": 127.04927
    }
  ]
}