{
  "round": 531,
  "date": "2013-02-02",
  "nums": [
    1,
    5,
    9,
    21,
    27,
    35
  ],
  "bonus": 45,
  "firstWinAmount": 1521519750,
  "firstWinners": 9,
  "totalSales": 57567064000,
  "prizes": {
    "first": {
      "amount": 1521519750,
      "winners": 9
    },
    "second": {
      "amount": 54339992,
      "winners": 42
    },
    "third": {
      "amount": 1410557,
      "winners": 1618
    },
    "fourth": {
      "amount": 50000,
      "winners": 78757
    },
    "fifth": {
      "amount": 5000,
      "winners": 1317489
    }
  },
  "methodCounts": {
    "auto": 7,
    "manual": 2,
    "mixed": 0
  },
  "topStores": [
    {
      "rank": 1,
      "name": "일등복권편의점",
      "address": "대구 달서구 대명천로 220 1층",
      "method": "auto",
      "lat": 35.84214,
      "lng": 128.53621
    },
    {
      "rank": 1,
      "name": "운수대통",
      "address": "인천 남동구 석정로 479",
      "method": "auto",
      "lat": 37.46613,
      "lng": 126.68891
    },
    {
      "rank": 1,
      "name": "왕대박복권",
      "address": "인천 부평구 동수천로 108 1층",
      "method": "auto",
      "lat": 37.495102,
      "lng": 126.73705
    },
    {
      "rank": 1,
      "name": "GS25(부평중앙)",
      "address": "인천 부평구 부평동  154-161층",
      "method": "auto",
      "lat": 37.499557,
      "lng": 126.72256
    },
    {
      "rank": 1,
      "name": "메트로복권",
      "address": "경기 성남시 분당구 성남대로916번길 5 관보골든쇼핑스포츠빌딩 1층 112호",
      "method": "auto",
      "lat": 37.411636,
      "lng": 127.12984
    },
    {
      "rank": 1,
      "name": "노다지복권방",
      "address": "경기 용인시 처인구 금령로 130",
      "method": "auto",
      "lat": 37.23509,
      "lng": 127.2105
    },
    {
      "rank": 1,
      "name": "로또복권방",
      "address": "경기 평택시 지산로37번길 76",
      "method": "manual",
      "lat": 37.08238,
      "lng": 127.059525
    },
    {
      "rank": 1,
      "name": "CU(포남뷰티점)",
      "address": "강원 강릉시 포남동  1150",
      "method": "auto",
      "lat": 37.767353,
      "lng": 128.90926
    },
    {
      "rank": 1,
      "name": "불국사명당복권",
      "address": "경북 경주시 산업로 3033",
      "method": "manual",
      "lat": 35.7765,
      "lng": 129.29813
    }
  ]
}