{
  "round": 543,
  "date": "2013-04-27",
  "nums": [
    13,
    18,
    26,
    31,
    34,
    44
  ],
  "bonus": 12,
  "firstWinAmount": 1112934844,
  "firstWinners": 12,
  "totalSales": 56570245000,
  "prizes": {
    "first": {
      "amount": 1112934844,
      "winners": 12
    },
    "second": {
      "amount": 47358930,
      "winners": 47
    },
    "third": {
      "amount": 1131032,
      "winners": 1968
    },
    "fourth": {
      "amount": 50000,
      "winners": 81520
    },
    "fifth": {
      "amount": 5000,
      "winners": 1280433
    }
  },
  "methodCounts": {
    "auto": 3,
    "manual": 9,
    "mixed": 0
  },
  "topStores": [
    {
      "rank": 1,
      "name": "행운의집",
      "address": "서울 강동구 구천면로 220",
      "method": "manual",
      "lat": 37.540466,
      "lng": 127.1292
    },
    {
      "rank": 1,
      "name": "한양슈퍼체인",
      "address": "서울 성북구 지봉로24길 65",
      "method": "manual",
      "lat": 37.582336,
      "lng": 127.020454
    },
    {
      "rank": 1,
      "name": "대박복권방",
      "address": "부산 해운대구 재반로 209-1 7통6반",
      "method": "manual",
      "lat": 35.196014,
      "lng": 129.13062
    },
    {
      "rank": 1,
      "name": "역전식품",
      "address": "인천 남구 도화동  80-83",
      "method": "auto",
      "lat": 37.467224,
      "lng": 126.65607
    },
    {
      "rank": 1,
      "name": "천하명당(염포점)",
      "address": "울산 북구 염포로 643",
      "method": "auto",
      "lat": 35.534893,
      "lng": 129.38977
    },
    {
      "rank": 1,
      "name": "화정역 4번출구",
      "address": "경기 고양시 덕양구 화정로 53 새롬프라자1층 112호",
      "method": "manual",
      "lat": 37.63517,
      "lng": 126.83188
    },
    {
      "rank": 1,
      "name": "대박복권방",
      "address": "경기 부천시 고리울로 51 고강빌딩1층",
      "method": "manual",
      "lat": 37.527355,
      "lng": 126.8216
    },
    {
      "rank": 1,
      "name": "버스매표소",
      "address": "경기 부천시 부천로 32 도로부지",
      "method": "manual",
      "lat": 37.487022,
      "lng": 126.783676
    },
    {
      "rank": 1,
      "name": "천하명당복권방",
      "address": "경기 수원시 팔달구 매산로 2",
      "method": "manual",
      "lat": 37.26661,
      "lng": 127.00185
    },
    {
      "rank": 1,
      "name": "열두보석복권방",
      "address": "경기 용인시 기흥구 구갈로 74 구갈스포츠센타 구갈스포츠센터106호",
      "method": "manual",
      "lat": 37.281136,
      "lng": 127.11181
    },
    {
      "rank": 1,
      "name": "베스트올수성점",
      "address": "전북 정읍시 수성2로 28",
      "method": "auto",
      "lat": 35.58169,
      "lng": 126.854416
    },
    {
      "rank": 1,
      "name": "행운로또복권방",
      "address": "전남 광양시 대림오성로 146-1",
      "method": "manual",
      "lat": 34.964733,
      "lng": 127.57778
    }
  ]
}