{
  "round": 545,
  "date": "2013-05-11",
  "nums": [
    4,
    24,
    25,
    27,
    34,
    35
  ],
  "bonus": 2,
  "firstWinAmount": 1198994353,
  "firstWinners": 11,
  "totalSales": 55967171000,
  "prizes": {
    "first": {
      "amount": 1198994353,
      "winners": 11
    },
    "second": {
      "amount": 52337056,
      "winners": 42
    },
    "third": {
      "amount": 1468375,
      "winners": 1497
    },
    "fourth": {
      "amount": 50000,
      "winners": 77301
    },
    "fifth": {
      "amount": 5000,
      "winners": 1306657
    }
  },
  "methodCounts": {
    "auto": 9,
    "manual": 2,
    "mixed": 0
  },
  "topStores": [
    {
      "rank": 1,
      "name": "강일코사할인마트",
      "address": "서울 강동구 고덕로97길 29 강일리버파크9단지아파트 105호",
      "method": "auto",
      "lat": 37.55984,
      "lng": 127.1788
    },
    {
      "rank": 1,
      "name": "GS25(구로제일)",
      "address": "서울 구로구 구로동  685-215103호",
      "method": "auto",
      "lat": 37.49201,
      "lng": 126.87578
    },
    {
      "rank": 1,
      "name": "교통카드판매대",
      "address": "서울 구로구 경인로 661",
      "method": "auto",
      "lat": 37.50941,
      "lng": 126.88772
    },
    {
      "rank": 1,
      "name": "지원물산",
      "address": "서울 노원구 공릉로 108,(공릉동)",
      "method": "manual",
      "lat": 37.61983,
      "lng": 127.078094
    },
    {
      "rank": 1,
      "name": "돈벼락맞는곳",
      "address": "부산 동구 조방로49번길 18-1",
      "method": "auto",
      "lat": 35.139168,
      "lng": 129.05995
    },
    {
      "rank": 1,
      "name": "A복권방",
      "address": "대구 달서구 본리동  1199-8번지1층",
      "method": "auto",
      "lat": 35.840054,
      "lng": 128.5304
    },
    {
      "rank": 1,
      "name": "노다지복권방",
      "address": "인천 미추홀구 한나루로 400 학익시장 외7필지125호",
      "method": "auto",
      "lat": 37.443375,
      "lng": 126.66496
    },
    {
      "rank": 1,
      "name": "25시슈퍼",
      "address": "경기 시흥시 함송로14번길 13-17 홍익프라자1층107호",
      "method": "manual",
      "lat": 37.362453,
      "lng": 126.72994
    },
    {
      "rank": 1,
      "name": "평택로또판매",
      "address": "경기 평택시 비전5로 7 중앙프라자 105호",
      "method": "auto",
      "lat": 36.9969,
      "lng": 127.09144
    },
    {
      "rank": 1,
      "name": "한아름매점",
      "address": "충남 홍성군 광천로 330",
      "method": "auto",
      "lat": 36.503197,
      "lng": 126.62555
    },
    {
      "rank": 1,
      "name": "나주복권방",
      "address": "전남 나주시 우정로 56 에이동 108호(빛가람동)",
      "method": "auto",
      "lat": 35.02372,
      "lng": 126.78559
    }
  ]
}