{
  "round": 546,
  "date": "2013-05-18",
  "nums": [
    8,
    17,
    20,
    27,
    37,
    43
  ],
  "bonus": 6,
  "firstWinAmount": 405939950,
  "firstWinners": 30,
  "totalSales": 56713166000,
  "prizes": {
    "first": {
      "amount": 405939950,
      "winners": 30
    },
    "second": {
      "amount": 36903632,
      "winners": 55
    },
    "third": {
      "amount": 652637,
      "winners": 3110
    },
    "fourth": {
      "amount": 50000,
      "winners": 104469
    },
    "fifth": {
      "amount": 5000,
      "winners": 1379107
    }
  },
  "methodCounts": {
    "auto": 3,
    "manual": 27,
    "mixed": 0
  },
  "topStores": [
    {
      "rank": 1,
      "name": "스파",
      "address": "서울 노원구 동일로 1493 상계주공아파트(10단지) 주공10단지종합상가111",
      "method": "manual",
      "lat": 37.66166,
      "lng": 127.05787
    },
    {
      "rank": 1,
      "name": "연보슈퍼",
      "address": "서울 서대문구 연희동  78-43",
      "method": "manual",
      "lat": 37.572998,
      "lng": 126.935234
    },
    {
      "rank": 1,
      "name": "토큰판매소",
      "address": "서울 송파구 바람드리길 62",
      "method": "manual",
      "lat": 37.536663,
      "lng": 127.12238
    },
    {
      "rank": 1,
      "name": "부일카서비스",
      "address": "부산 동구 자성로133번길 35",
      "method": "manual",
      "lat": 35.140015,
      "lng": 129.06306
    },
    {
      "rank": 1,
      "name": "부일카서비스",
      "address": "부산 동구 자성로133번길 35",
      "method": "manual",
      "lat": 35.140015,
      "lng": 129.06306
    },
    {
      "rank": 1,
      "name": "부일카서비스",
      "address": "부산 동구 자성로133번길 35",
      "method": "manual",
      "lat": 35.140015,
      "lng": 129.06306
    },
    {
      "rank": 1,
      "name": "부일카서비스",
      "address": "부산 동구 자성로133번길 35",
      "method": "manual",
      "lat": 35.140015,
      "lng": 129.06306
    },
    {
      "rank": 1,
      "name": "부일카서비스",
      "address": "부산 동구 자성로133번길 35",
      "method": "manual",
      "lat": 35.140015,
      "lng": 129.06306
    },
    {
      "rank": 1,
      "name": "부일카서비스",
      "address": "부산 동구 자성로133번길 35",
      "method": "manual",
      "lat": 35.140015,
      "lng": 129.06306
    },
    {
      "rank": 1,
      "name": "부일카서비스",
      "address": "부산 동구 자성로133번길 35",
      "method": "manual",
      "lat": 35.140015,
      "lng": 129.06306
    },
    {
      "rank": 1,
      "name": "부일카서비스",
      "address": "부산 동구 자성로133번길 35",
      "method": "manual",
      "lat": 35.140015,
      "lng": 129.06306
    },
    {
      "rank": 1,
      "name": "부일카서비스",
      "address": "부산 동구 자성로133번길 35",
      "method": "manual",
      "lat": 35.140015,
      "lng": 129.06306
    },
    {
      "rank": 1,
      "name": "부일카서비스",
      "address": "부산 동구 자성로133번길 35",
      "method": "manual",
      "lat": 35.140015,
      "lng": 129.06306
    },
    {
      "rank": 1,
      "name": "디딤돌",
      "address": "대구 달서구 월곡로45길 110,(상인동)",
      "method": "manual",
      "lat": 35.811028,
      "lng": 128.53796
    },
    {
      "rank": 1,
      "name": "힘찬슈퍼 복권방",
      "address": "인천 부평구 장제로 112",
      "method": "manual",
      "lat": 37.495377,
      "lng": 126.73041
    },
    {
      "rank": 1,
      "name": "세븐일레븐동천점",
      "address": "광주 서구 동천동  600 세븐일레븐동천점내",
      "method": "auto",
      "lat": 35.1711,
      "lng": 126.8682
    },
    {
      "rank": 1,
      "name": "주공슈퍼",
      "address": "경기 고양시 일산동구 장백로 59 주공아파트단지상가",
      "method": "manual",
      "lat": 37.642292,
      "lng": 126.78531
    },
    {
      "rank": 1,
      "name": "주공슈퍼",
      "address": "경기 고양시 일산동구 장백로 59 주공아파트단지상가",
      "method": "manual",
      "lat": 37.642292,
      "lng": 126.78531
    },
    {
      "rank": 1,
      "name": "대박찬스",
      "address": "경기 남양주시 진접읍 장현로 111 1층1호",
      "method": "manual",
      "lat": 37.719795,
      "lng": 127.18393
    },
    {
      "rank": 1,
      "name": "로또복권",
      "address": "경기 시흥시 정왕동  1859-14103",
      "method": "manual",
      "lat": 37.352997,
      "lng": 126.72371
    },
    {
      "rank": 1,
      "name": "GS25(안산팔곡)",
      "address": "경기 안산시 상록구 본오동 741-5 1층101",
      "method": "manual",
      "lat": 37.294895,
      "lng": 126.87601
    },
    {
      "rank": 1,
      "name": "로또 슈퍼",
      "address": "경기 의정부시 동일로 681,(금오동)",
      "method": "manual",
      "lat": 37.748566,
      "lng": 127.05282
    },
    {
      "rank": 1,
      "name": "복권천하 미스터잉크동해점",
      "address": "강원 동해시 발한로 35",
      "method": "auto",
      "lat": 37.535885,
      "lng": 129.10315
    },
    {
      "rank": 1,
      "name": "장미슈퍼",
      "address": "충남 부여군 부여읍 계백로 265 부여군청 로터리 부근",
      "method": "manual",
      "lat": 36.27629,
      "lng": 126.90941
    },
    {
      "rank": 1,
      "name": "삼례로또복권",
      "address": "전북 완주군 삼례읍 동학로 32",
      "method": "manual",
      "lat": 35.91063,
      "lng": 127.074875
    },
    {
      "rank": 1,
      "name": "에버빌마트",
      "address": "경북 안동시 강남5길 102 에버빌마트 1층",
      "method": "manual",
      "lat": 36.551132,
      "lng": 128.73126
    },
    {
      "rank": 1,
      "name": "NG24",
      "address": "경북 칠곡군 북중리3길 59",
      "method": "auto",
      "lat": 36.079823,
      "lng": 128.41183
    },
    {
      "rank": 1,
      "name": "-",
      "address": "경남 김해시 계동로 220 102호 복권판매점",
      "method": "manual",
      "lat": 35.190304,
      "lng": 128.8022
    },
    {
      "rank": 1,
      "name": "합천우리복권방",
      "address": "경남 합천군 핫들2로 8 1층",
      "method": "manual",
      "lat": 35.56843,
      "lng": 128.16539
    },
    {
      "rank": 1,
      "name": "한라점",
      "address": "제주 제주시 노형동  2519-14 씨유대화점내",
      "method": "manual",
      "lat": 33.482132,
      "lng": 126.47375
    }
  ]
}