{
  "round": 555,
  "date": "2013-07-20",
  "nums": [
    11,
    17,
    21,
    24,
    26,
    36
  ],
  "bonus": 12,
  "firstWinAmount": 1711027360,
  "firstWinners": 8,
  "totalSales": 57273817000,
  "prizes": {
    "first": {
      "amount": 1711027360,
      "winners": 8
    },
    "second": {
      "amount": 49594996,
      "winners": 46
    },
    "third": {
      "amount": 1468063,
      "winners": 1554
    },
    "fourth": {
      "amount": 50000,
      "winners": 78046
    },
    "fifth": {
      "amount": 5000,
      "winners": 1296730
    }
  },
  "methodCounts": {
    "auto": 7,
    "manual": 1,
    "mixed": 0
  },
  "topStores": [
    {
      "rank": 1,
      "name": "월드24시",
      "address": "서울 은평구 통일로 855-15",
      "method": "auto",
      "lat": 37.61925,
      "lng": 126.919785
    },
    {
      "rank": 1,
      "name": "행운복권방",
      "address": "서울 중랑구 면목로 423  1층",
      "method": "auto",
      "lat": 37.589806,
      "lng": 127.08696
    },
    {
      "rank": 1,
      "name": "GS25(뉴둔산타운)",
      "address": "대전 서구 둔산동  1095번지하이스트빌1층104호",
      "method": "auto",
      "lat": 36.351566,
      "lng": 127.37402
    },
    {
      "rank": 1,
      "name": "노다지복권방",
      "address": "경기 용인시 처인구 금령로 130",
      "method": "auto",
      "lat": 37.23509,
      "lng": 127.2105
    },
    {
      "rank": 1,
      "name": "팡팡복권방",
      "address": "충북 진천군 상산로 71",
      "method": "manual",
      "lat": 36.854687,
      "lng": 127.44187
    },
    {
      "rank": 1,
      "name": "행운복권",
      "address": "경북 구미시 진평동  119-2번지JM편의점 내",
      "method": "auto",
      "lat": 36.094147,
      "lng": 128.42616
    },
    {
      "rank": 1,
      "name": "복권일번지",
      "address": "경북 상주시 중앙로 250-1",
      "method": "auto",
      "lat": 36.4158,
      "lng": 128.16591
    },
    {
      "rank": 1,
      "name": "성원마트",
      "address": "경남 창원시 성산구 대정로 73 성원1차상가120호 이마트24",
      "method": "auto",
      "lat": 35.211075,
      "lng": 128.70038
    }
  ]
}