{
  "round": 560,
  "date": "2013-08-24",
  "nums": [
    1,
    4,
    20,
    23,
    29,
    45
  ],
  "bonus": 28,
  "firstWinAmount": 1976697215,
  "firstWinners": 7,
  "totalSales": 56565298000,
  "prizes": {
    "first": {
      "amount": 1976697215,
      "winners": 7
    },
    "second": {
      "amount": 57653669,
      "winners": 40
    },
    "third": {
      "amount": 1562431,
      "winners": 1476
    },
    "fourth": {
      "amount": 50000,
      "winners": 73123
    },
    "fifth": {
      "amount": 5000,
      "winners": 1235465
    }
  },
  "methodCounts": {
    "auto": 5,
    "manual": 2,
    "mixed": 0
  },
  "topStores": [
    {
      "rank": 1,
      "name": "GS25(쌍문사계절)",
      "address": "서울 도봉구 쌍문동  217-3",
      "method": "auto",
      "lat": 37.65903,
      "lng": 127.03267
    },
    {
      "rank": 1,
      "name": "GS25 동작양지",
      "address": "서울 동작구 상도동  365-1",
      "method": "manual",
      "lat": 37.50203,
      "lng": 126.94469
    },
    {
      "rank": 1,
      "name": "태원정보통신",
      "address": "서울 중랑구 봉우재로33길 80,(상봉동)",
      "method": "auto",
      "lat": 37.595444,
      "lng": 127.08968
    },
    {
      "rank": 1,
      "name": "아로마포미둔산점",
      "address": "대전 서구 둔지로 15 경희빌딩1층",
      "method": "manual",
      "lat": 36.3512,
      "lng": 127.375786
    },
    {
      "rank": 1,
      "name": "로또복권방",
      "address": "충남 아산시 모산로 124 시대이발관 PGA스크린골프연습장내",
      "method": "auto",
      "lat": 36.77425,
      "lng": 127.056366
    },
    {
      "rank": 1,
      "name": "일등로또",
      "address": "전남 여수시 여문문화길 57-1 이마트24 편의점내",
      "method": "auto",
      "lat": 34.751823,
      "lng": 127.701805
    },
    {
      "rank": 1,
      "name": "부흥청과식품점",
      "address": "경북 경산시 하양읍 하양로 35 우방3차상가",
      "method": "auto",
      "lat": 35.90926,
      "lng": 128.81354
    }
  ]
}