{
  "round": 561,
  "date": "2013-08-31",
  "nums": [
    5,
    7,
    18,
    37,
    42,
    45
  ],
  "bonus": 20,
  "firstWinAmount": 2753712225,
  "firstWinners": 5,
  "totalSales": 56638383000,
  "prizes": {
    "first": {
      "amount": 2753712225,
      "winners": 5
    },
    "second": {
      "amount": 55969761,
      "winners": 41
    },
    "third": {
      "amount": 1600252,
      "winners": 1434
    },
    "fourth": {
      "amount": 50000,
      "winners": 73966
    },
    "fifth": {
      "amount": 5000,
      "winners": 1252562
    }
  },
  "methodCounts": {
    "auto": 2,
    "manual": 3,
    "mixed": 0
  },
  "topStores": [
    {
      "rank": 1,
      "name": "월드24시",
      "address": "서울 은평구 통일로 855-15",
      "method": "manual",
      "lat": 37.61925,
      "lng": 126.919785
    },
    {
      "rank": 1,
      "name": "부영마트",
      "address": "서울 중랑구 상봉동  108번지",
      "method": "manual",
      "lat": 37.594753,
      "lng": 127.085655
    },
    {
      "rank": 1,
      "name": "CU(원종깨비점)",
      "address": "경기 부천시 오정구 원종동 280-9번지1F",
      "method": "auto",
      "lat": 37.522907,
      "lng": 126.80514
    },
    {
      "rank": 1,
      "name": "천하명당복권방",
      "address": "충남 홍성군 조양로 180",
      "method": "manual",
      "lat": 36.60072,
      "lng": 126.66951
    },
    {
      "rank": 1,
      "name": "왕대박복권방",
      "address": "경북 문경시 중앙로 15,(모전동)",
      "method": "auto",
      "lat": 36.588123,
      "lng": 128.19293
    }
  ]
}