{
  "round": 562,
  "date": "2013-09-07",
  "nums": [
    4,
    11,
    13,
    17,
    20,
    31
  ],
  "bonus": 33,
  "firstWinAmount": 1166694614,
  "firstWinners": 11,
  "totalSales": 56288212000,
  "prizes": {
    "first": {
      "amount": 1166694614,
      "winners": 11
    },
    "second": {
      "amount": 41940003,
      "winners": 51
    },
    "third": {
      "amount": 1195607,
      "winners": 1789
    },
    "fourth": {
      "amount": 50000,
      "winners": 85094
    },
    "fifth": {
      "amount": 5000,
      "winners": 1355577
    }
  },
  "methodCounts": {
    "auto": 9,
    "manual": 2,
    "mixed": 0
  },
  "topStores": [
    {
      "rank": 1,
      "name": "럭키슈퍼",
      "address": "서울 양천구 중앙로 251 101호",
      "method": "auto",
      "lat": 37.51867,
      "lng": 126.85318
    },
    {
      "rank": 1,
      "name": "왕대박복권",
      "address": "인천 부평구 동수천로 108 1층",
      "method": "auto",
      "lat": 37.495102,
      "lng": 126.73705
    },
    {
      "rank": 1,
      "name": "로또복권문수점",
      "address": "울산 남구 무거동  1195-9번지CU마트점포 내",
      "method": "auto",
      "lat": 35.551674,
      "lng": 129.27457
    },
    {
      "rank": 1,
      "name": "버스표판매소 로또판매점",
      "address": "경기 고양시 덕양구 토당동 799-46능곡역앞",
      "method": "auto",
      "lat": 37.624477,
      "lng": 126.82043
    },
    {
      "rank": 1,
      "name": "성진",
      "address": "경기 성남시 수정구 모란로 91",
      "method": "auto",
      "lat": 37.44118,
      "lng": 127.125694
    },
    {
      "rank": 1,
      "name": "GS25(안산산호)",
      "address": "경기 안산시 단원구 선부동 1081번지산호한양상가101호",
      "method": "auto",
      "lat": 37.336678,
      "lng": 126.81326
    },
    {
      "rank": 1,
      "name": "모현복권방 및 편의점",
      "address": "경기 용인시 처인구 백옥대로 2383",
      "method": "auto",
      "lat": 37.336582,
      "lng": 127.24914
    },
    {
      "rank": 1,
      "name": "CU(원주무실점)",
      "address": "강원 원주시 무실동  1641-10번지애드피아빌딩 103호",
      "method": "manual",
      "lat": 37.33639,
      "lng": 127.92798
    },
    {
      "rank": 1,
      "name": "로또명당인주점",
      "address": "충남 아산시 서해로 519-2",
      "method": "auto",
      "lat": 36.87784,
      "lng": 126.89828
    },
    {
      "rank": 1,
      "name": "플러스하나",
      "address": "전남 순천시 비봉길 6 상가동 1층 107호",
      "method": "manual",
      "lat": 34.93302,
      "lng": 127.48947
    },
    {
      "rank": 1,
      "name": "동원복권",
      "address": "경남 양산시 북정중앙로 30",
      "method": "auto",
      "lat": 35.36137,
      "lng": 129.04784
    }
  ]
}