{
  "round": 567,
  "date": "2013-10-12",
  "nums": [
    1,
    10,
    15,
    16,
    32,
    41
  ],
  "bonus": 28,
  "firstWinAmount": 2318659438,
  "firstWinners": 6,
  "totalSales": 57439471000,
  "prizes": {
    "first": {
      "amount": 2318659438,
      "winners": 6
    },
    "second": {
      "amount": 43748292,
      "winners": 53
    },
    "third": {
      "amount": 1498811,
      "winners": 1547
    },
    "fourth": {
      "amount": 50000,
      "winners": 76284
    },
    "fifth": {
      "amount": 5000,
      "winners": 1271252
    }
  },
  "methodCounts": {
    "auto": 3,
    "manual": 3,
    "mixed": 0
  },
  "topStores": [
    {
      "rank": 1,
      "name": "가판점(신문)",
      "address": "서울 영등포구 양평로 48",
      "method": "auto",
      "lat": 37.534508,
      "lng": 126.90126
    },
    {
      "rank": 1,
      "name": "복권명당",
      "address": "경기 안산시 상록구 건건로 41",
      "method": "manual",
      "lat": 37.304985,
      "lng": 126.90198
    },
    {
      "rank": 1,
      "name": "로또통신",
      "address": "경기 안성시 장기로 36",
      "method": "auto",
      "lat": 37.00587,
      "lng": 127.26738
    },
    {
      "rank": 1,
      "name": "노다지복권방",
      "address": "경기 파주시 문향로67번길 2 순금당안경원",
      "method": "manual",
      "lat": 37.858105,
      "lng": 126.784996
    },
    {
      "rank": 1,
      "name": "로또복권",
      "address": "경기 평택시 팽성읍  객사리126-3번지GS25평택송화점",
      "method": "manual",
      "lat": 36.96442,
      "lng": 127.06033
    },
    {
      "rank": 1,
      "name": "복권방",
      "address": "강원 원주시 관설동  1702-1",
      "method": "auto",
      "lat": 37.318775,
      "lng": 127.965
    }
  ]
}