{
  "round": 590,
  "date": "2014-03-22",
  "nums": [
    20,
    30,
    36,
    38,
    41,
    45
  ],
  "bonus": 23,
  "firstWinAmount": 2185183983,
  "firstWinners": 7,
  "totalSales": 60003131000,
  "prizes": {
    "first": {
      "amount": 2185183983,
      "winners": 7
    },
    "second": {
      "amount": 82238107,
      "winners": 31
    },
    "third": {
      "amount": 1860863,
      "winners": 1370
    },
    "fourth": {
      "amount": 50000,
      "winners": 70019
    },
    "fifth": {
      "amount": 5000,
      "winners": 1221113
    }
  },
  "methodCounts": {
    "auto": 4,
    "manual": 3,
    "mixed": 0
  },
  "topStores": [
    {
      "rank": 1,
      "name": "정평복권",
      "address": "서울 양천구 목동중앙본로7길 30 101호",
      "method": "auto",
      "lat": 37.539677,
      "lng": 126.86694
    },
    {
      "rank": 1,
      "name": "백석교판매점",
      "address": "경기 고양시 일산동구 마두동  783번지 백석고교앞정류소",
      "method": "auto",
      "lat": 37.653072,
      "lng": 126.78578
    },
    {
      "rank": 1,
      "name": "경민복권방",
      "address": "경기 수원시 팔달구 정조로 866-2",
      "method": "manual",
      "lat": 37.285473,
      "lng": 127.015816
    },
    {
      "rank": 1,
      "name": "태안로또복권방",
      "address": "충남 태안군 독샘로 57",
      "method": "auto",
      "lat": 36.75318,
      "lng": 126.29935
    },
    {
      "rank": 1,
      "name": "팡팡로또복권",
      "address": "전북 김제시 요촌동  293-8번지",
      "method": "manual",
      "lat": 35.804558,
      "lng": 126.8857
    },
    {
      "rank": 1,
      "name": "세방매점",
      "address": "경북 경주시 산업로 4447 (용강동)",
      "method": "auto",
      "lat": 35.877205,
      "lng": 129.22649
    },
    {
      "rank": 1,
      "name": "CU(마산금강점)",
      "address": "경남 창원시 마산합포구 중앙동3가  2-52번지 금강펠릭스타워102호",
      "method": "manual",
      "lat": 35.180428,
      "lng": 128.5571
    }
  ]
}