{
  "round": 595,
  "date": "2014-04-26",
  "nums": [
    8,
    24,
    28,
    35,
    38,
    40
  ],
  "bonus": 5,
  "firstWinAmount": 1744525219,
  "firstWinners": 8,
  "totalSales": 57797288000,
  "prizes": {
    "first": {
      "amount": 1744525219,
      "winners": 8
    },
    "second": {
      "amount": 43074697,
      "winners": 54
    },
    "third": {
      "amount": 1549656,
      "winners": 1501
    },
    "fourth": {
      "amount": 50000,
      "winners": 77652
    },
    "fifth": {
      "amount": 5000,
      "winners": 1281555
    }
  },
  "methodCounts": {
    "auto": 4,
    "manual": 4,
    "mixed": 0
  },
  "topStores": [
    {
      "rank": 1,
      "name": "개봉학마을점로또판매",
      "address": "서울 구로구 개봉동  482번지 교육프라자101 102호",
      "method": "manual",
      "lat": 37.50752,
      "lng": 126.84519
    },
    {
      "rank": 1,
      "name": "부일카서비스",
      "address": "부산 동구 자성로133번길 35",
      "method": "auto",
      "lat": 35.140015,
      "lng": 129.06306
    },
    {
      "rank": 1,
      "name": "삼성소비자슈퍼",
      "address": "대전 중구 선화서로 128-1",
      "method": "auto",
      "lat": 36.334328,
      "lng": 127.41397
    },
    {
      "rank": 1,
      "name": "올인(allin)",
      "address": "경기 화성시 3.1만세로 1147",
      "method": "manual",
      "lat": 37.135284,
      "lng": 126.910614
    },
    {
      "rank": 1,
      "name": "조치원복권방",
      "address": "세종   조치원로 9-1",
      "method": "manual",
      "lat": 36.601532,
      "lng": 127.29785
    },
    {
      "rank": 1,
      "name": "구례로또",
      "address": "전남 구례군 구례읍 로터리길 2-1",
      "method": "auto",
      "lat": 35.208714,
      "lng": 127.464806
    },
    {
      "rank": 1,
      "name": "천하명당(팔용점)",
      "address": "경남 창원시 의창구 사화로 26",
      "method": "manual",
      "lat": 35.256348,
      "lng": 128.6103
    },
    {
      "rank": 1,
      "name": "로또정량점",
      "address": "경남 통영시 통영해안로 395",
      "method": "auto",
      "lat": 34.845318,
      "lng": 128.43121
    }
  ]
}