{
  "round": 647,
  "date": "2015-04-25",
  "nums": [
    5,
    16,
    21,
    23,
    24,
    30
  ],
  "bonus": 29,
  "firstWinAmount": 2189725608,
  "firstWinners": 7,
  "totalSales": 62314338000,
  "prizes": {
    "first": {
      "amount": 2189725608,
      "winners": 7
    },
    "second": {
      "amount": 58060907,
      "winners": 44
    },
    "third": {
      "amount": 1600677,
      "winners": 1596
    },
    "fourth": {
      "amount": 50000,
      "winners": 79202
    },
    "fifth": {
      "amount": 5000,
      "winners": 1351926
    }
  },
  "methodCounts": {
    "auto": 5,
    "manual": 1,
    "mixed": 0
  },
  "topStores": [
    {
      "rank": 1,
      "name": "스파",
      "address": "서울 노원구 동일로 1493 상계주공아파트(10단지) 주공10단지종합상가111",
      "method": "auto",
      "lat": 37.66166,
      "lng": 127.05787
    },
    {
      "rank": 1,
      "name": "GS25(석촌센타)",
      "address": "서울 송파구  석촌동 272-25번지",
      "method": "auto",
      "lat": 37.50102,
      "lng": 127.106606
    },
    {
      "rank": 1,
      "name": "스위트초이스(엄궁점)",
      "address": "부산 사상구 엄궁북로 10",
      "method": "auto",
      "lat": 35.1284,
      "lng": 128.97186
    },
    {
      "rank": 1,
      "name": "제일복권",
      "address": "인천 동구 송림로162번길 10 B107",
      "method": "manual",
      "lat": 37.477863,
      "lng": 126.650566
    },
    {
      "rank": 1,
      "name": "프리웨이스토어",
      "address": "경기 광주시 회안대로 605 1층",
      "method": "mixed",
      "lat": 37.40682,
      "lng": 127.237946
    },
    {
      "rank": 1,
      "name": "신라슈퍼",
      "address": "경북 포항시 남구 동해면 일월로 112,(약전리)",
      "method": "auto",
      "lat": 35.987953,
      "lng": 129.4453
    },
    {
      "rank": 1,
      "name": "돈벼락맞는곳",
      "address": "경남 김해시 한림면  병동리  980-7번지",
      "method": "auto",
      "lat": 35.293262,
      "lng": 128.78296
    }
  ]
}