{
  "round": 662,
  "date": "2015-08-08",
  "nums": [
    5,
    6,
    9,
    11,
    15,
    37
  ],
  "bonus": 26,
  "firstWinAmount": 1689733688,
  "firstWinners": 8,
  "totalSales": 59164542000,
  "prizes": {
    "first": {
      "amount": 1689733688,
      "winners": 8
    },
    "second": {
      "amount": 52394844,
      "winners": 43
    },
    "third": {
      "amount": 1260761,
      "winners": 1787
    },
    "fourth": {
      "amount": 50000,
      "winners": 88493
    },
    "fifth": {
      "amount": 5000,
      "winners": 1426759
    }
  },
  "methodCounts": {
    "auto": 6,
    "manual": 2,
    "mixed": 0
  },
  "topStores": [
    {
      "rank": 1,
      "name": "동수슈퍼문구복권",
      "address": "인천 부평구 동수로 101",
      "method": "auto",
      "lat": 37.485455,
      "lng": 126.72979
    },
    {
      "rank": 1,
      "name": "버스표거리판매점",
      "address": "경기 수원시 장안구 조원동  768-10번지",
      "method": "manual",
      "lat": 37.29874,
      "lng": 127.01599
    },
    {
      "rank": 1,
      "name": "노다지복권방",
      "address": "경기 안산시 단원구 와동  779-7번지 102호",
      "method": "manual",
      "lat": 37.34525,
      "lng": 126.821724
    },
    {
      "rank": 1,
      "name": "터미널식품",
      "address": "경기 의정부시 동일로 640,(금오동)",
      "method": "auto",
      "lat": 37.745457,
      "lng": 127.05505
    },
    {
      "rank": 1,
      "name": "황금복권마트",
      "address": "경기 이천시 증신로325번길 5 1층",
      "method": "auto",
      "lat": 37.297546,
      "lng": 127.438866
    },
    {
      "rank": 1,
      "name": "원동슈퍼",
      "address": "충남 보령시 대천로 28",
      "method": "auto",
      "lat": 36.35113,
      "lng": 126.59745
    },
    {
      "rank": 1,
      "name": "GS25(두정메트로점)",
      "address": "충남 천안시 서북구 성정동 1451번지",
      "method": "auto",
      "lat": 36.826557,
      "lng": 127.14148
    },
    {
      "rank": 1,
      "name": "행운복권방 보생당건강원",
      "address": "전북 익산시 무왕로 1268",
      "method": "auto",
      "lat": 35.960304,
      "lng": 126.99727
    }
  ]
}