{
  "round": 663,
  "date": "2015-08-15",
  "nums": [
    3,
    5,
    8,
    19,
    38,
    42
  ],
  "bonus": 20,
  "firstWinAmount": 2080244143,
  "firstWinners": 7,
  "totalSales": 61100704000,
  "prizes": {
    "first": {
      "amount": 2080244143,
      "winners": 7
    },
    "second": {
      "amount": 40449192,
      "winners": 60
    },
    "third": {
      "amount": 1491673,
      "winners": 1627
    },
    "fourth": {
      "amount": 50000,
      "winners": 84092
    },
    "fifth": {
      "amount": 5000,
      "winners": 1386028
    }
  },
  "methodCounts": {
    "auto": 3,
    "manual": 2,
    "mixed": 0
  },
  "topStores": [
    {
      "rank": 1,
      "name": "스파",
      "address": "서울 노원구 동일로 1493 상계주공아파트(10단지) 주공10단지종합상가111",
      "method": "auto",
      "lat": 37.66166,
      "lng": 127.05787
    },
    {
      "rank": 1,
      "name": "명동슈퍼",
      "address": "경기 광명시 디지털로 17 1동 107호(철산동, (주)티오티비 오렌지타운)",
      "method": "manual",
      "lat": 37.474014,
      "lng": 126.86936
    },
    {
      "rank": 1,
      "name": "그린마트",
      "address": "경기 성남시 분당구 대왕판교로 255 107호",
      "method": "mixed",
      "lat": 37.366467,
      "lng": 127.10083
    },
    {
      "rank": 1,
      "name": "행운복권방",
      "address": "경기 포천시 솔모루로 86-1",
      "method": "mixed",
      "lat": 37.8288,
      "lng": 127.14748
    },
    {
      "rank": 1,
      "name": "인생역전로또",
      "address": "충북 청주시 상당구 용암동 1795번지",
      "method": "auto",
      "lat": 36.606075,
      "lng": 127.50503
    },
    {
      "rank": 1,
      "name": "CU(포항오거리)",
      "address": "경북 포항시 북구 죽도동 42-17번지",
      "method": "auto",
      "lat": 36.033848,
      "lng": 129.36467
    },
    {
      "rank": 1,
      "name": "GS25(노형대림점)",
      "address": "제주 제주시  노형동 2511-5번지성림미래안아파트1층102호",
      "method": "manual",
      "lat": 33.48404,
      "lng": 126.47025
    }
  ]
}