{
  "round": 664,
  "date": "2015-08-22",
  "nums": [
    10,
    20,
    33,
    36,
    41,
    44
  ],
  "bonus": 5,
  "firstWinAmount": 1536801338,
  "firstWinners": 10,
  "totalSales": 61921689000,
  "prizes": {
    "first": {
      "amount": 1536801338,
      "winners": 10
    },
    "second": {
      "amount": 58212172,
      "winners": 44
    },
    "third": {
      "amount": 1674076,
      "winners": 1530
    },
    "fourth": {
      "amount": 50000,
      "winners": 77395
    },
    "fifth": {
      "amount": 5000,
      "winners": 1320082
    }
  },
  "methodCounts": {
    "auto": 7,
    "manual": 3,
    "mixed": 0
  },
  "topStores": [
    {
      "rank": 1,
      "name": "행운마트",
      "address": "서울 강동구 구천면로34길 71",
      "method": "manual",
      "lat": 37.542873,
      "lng": 127.13504
    },
    {
      "rank": 1,
      "name": "삼덕상회",
      "address": "부산 금정구  구서1동 409-11번지하프타임 편의점 내",
      "method": "auto",
      "lat": 35.21402,
      "lng": 129.10315
    },
    {
      "rank": 1,
      "name": "강화상회",
      "address": "인천 강화군 강화읍  갑곳리  846-1번지 102호",
      "method": "auto",
      "lat": 37.74287,
      "lng": 126.49272
    },
    {
      "rank": 1,
      "name": "훼미리로또",
      "address": "광주 남구 봉선로 164 삼환빌딩 CU봉선쌍용점 내",
      "method": "auto",
      "lat": 35.122723,
      "lng": 126.91318
    },
    {
      "rank": 1,
      "name": "태일이엔지",
      "address": "경기 수원시 권선구 경수대로302번길 22 상가동 107호(권선동, 권선한양아파트)",
      "method": "manual",
      "lat": 37.25249,
      "lng": 127.02103
    },
    {
      "rank": 1,
      "name": "천하명당우만점",
      "address": "경기 수원시 팔달구 월드컵로369번길 4",
      "method": "manual",
      "lat": 37.29025,
      "lng": 127.03013
    },
    {
      "rank": 1,
      "name": "스타마트",
      "address": "경북 구미시 임은길 15",
      "method": "auto",
      "lat": 36.087524,
      "lng": 128.36456
    },
    {
      "rank": 1,
      "name": "대박찬스로또복권방",
      "address": "경북 의성군 문소3길 95-1",
      "method": "auto",
      "lat": 36.354443,
      "lng": 128.69412
    },
    {
      "rank": 1,
      "name": "로터리편의마트",
      "address": "경북 포항시 북구 서동로 85 육거리",
      "method": "auto",
      "lat": 36.040768,
      "lng": 129.36725
    },
    {
      "rank": 1,
      "name": "창원병원앞매표소",
      "address": "경남 창원시 성산구 중앙동  104-1번지  가판",
      "method": "auto",
      "lat": 35.2185,
      "lng": 128.67143
    }
  ]
}