{
  "round": 670,
  "date": "2015-10-03",
  "nums": [
    11,
    18,
    26,
    27,
    40,
    41
  ],
  "bonus": 25,
  "firstWinAmount": 1191725219,
  "firstWinners": 12,
  "totalSales": 62242687000,
  "prizes": {
    "first": {
      "amount": 1191725219,
      "winners": 12
    },
    "second": {
      "amount": 61114114,
      "winners": 39
    },
    "third": {
      "amount": 1111166,
      "winners": 2145
    },
    "fourth": {
      "amount": 50000,
      "winners": 92680
    },
    "fifth": {
      "amount": 5000,
      "winners": 1483948
    }
  },
  "methodCounts": {
    "auto": 7,
    "manual": 5,
    "mixed": 0
  },
  "topStores": [
    {
      "rank": 1,
      "name": "공항로또",
      "address": "서울 강서구 공항대로 37 7호",
      "method": "auto",
      "lat": 37.56155,
      "lng": 126.81148
    },
    {
      "rank": 1,
      "name": "양평점로또판매",
      "address": "서울 영등포구 양평동4가  197-1번지",
      "method": "manual",
      "lat": 37.537758,
      "lng": 126.89548
    },
    {
      "rank": 1,
      "name": "GS25(대구교대)",
      "address": "대구 남구  대명동 2007-6번지",
      "method": "auto",
      "lat": 35.852573,
      "lng": 128.5909
    },
    {
      "rank": 1,
      "name": "베스트올원당",
      "address": "인천 서구 원당동  824-2골든벨프라자102호",
      "method": "manual",
      "lat": 37.594124,
      "lng": 126.69508
    },
    {
      "rank": 1,
      "name": "25시 스토리",
      "address": "인천 서구 가정로 246 1층 111호",
      "method": "manual",
      "lat": 37.513657,
      "lng": 126.67296
    },
    {
      "rank": 1,
      "name": "제일슈퍼",
      "address": "인천 연수구 앵고개로 242 제일상가112호",
      "method": "auto",
      "lat": 37.408646,
      "lng": 126.670815
    },
    {
      "rank": 1,
      "name": "현암꽃플라워",
      "address": "대전 동구 태전로 167",
      "method": "manual",
      "lat": 36.342148,
      "lng": 127.419106
    },
    {
      "rank": 1,
      "name": "토토복권방(병영점)",
      "address": "울산 중구 병영로 11",
      "method": "auto",
      "lat": 35.570312,
      "lng": 129.34595
    },
    {
      "rank": 1,
      "name": "송내매표소",
      "address": "경기 부천시 송내대로 37,(송내동) 버스정류장",
      "method": "auto",
      "lat": 37.48689,
      "lng": 126.75283
    },
    {
      "rank": 1,
      "name": "분당점로또판매",
      "address": "경기 성남시 분당구 판교로 436 홍우프라자 1층 13호 일부",
      "method": "manual",
      "lat": 37.40513,
      "lng": 127.12218
    },
    {
      "rank": 1,
      "name": "평촌3호점로또판매",
      "address": "경기 안양시 동안구 관양동 1604 1604번지",
      "method": "auto",
      "lat": 37.39362,
      "lng": 126.962616
    },
    {
      "rank": 1,
      "name": "일등복권",
      "address": "경북 칠곡군 동명면 금암중앙길 42,(금암리)",
      "method": "auto",
      "lat": 35.982574,
      "lng": 128.55367
    }
  ]
}