{
  "round": 677,
  "date": "2015-11-21",
  "nums": [
    12,
    15,
    24,
    36,
    41,
    44
  ],
  "bonus": 42,
  "firstWinAmount": 1921114407,
  "firstWinners": 8,
  "totalSales": 62267624000,
  "prizes": {
    "first": {
      "amount": 1921114407,
      "winners": 8
    },
    "second": {
      "amount": 69229348,
      "winners": 37
    },
    "third": {
      "amount": 1505871,
      "winners": 1701
    },
    "fourth": {
      "amount": 50000,
      "winners": 79827
    },
    "fifth": {
      "amount": 5000,
      "winners": 1330115
    }
  },
  "methodCounts": {
    "auto": 2,
    "manual": 6,
    "mixed": 0
  },
  "topStores": [
    {
      "rank": 1,
      "name": "경방필백화점라이츠21호",
      "address": "서울 은평구  갈현동 396-11번지",
      "method": "manual",
      "lat": 37.61931,
      "lng": 126.92036
    },
    {
      "rank": 1,
      "name": "종합가로가판점",
      "address": "서울 중구 마른내로 166",
      "method": "auto",
      "lat": 37.564297,
      "lng": 127.00633
    },
    {
      "rank": 1,
      "name": "샛별복권방",
      "address": "서울 중구 동호로10길 12 1층",
      "method": "manual",
      "lat": 37.55443,
      "lng": 127.01192
    },
    {
      "rank": 1,
      "name": "대진",
      "address": "대구 동구 안심로22길 40-3 마치프라자 제1동 제1층 제109호",
      "method": "manual",
      "lat": 35.863617,
      "lng": 128.69513
    },
    {
      "rank": 1,
      "name": "CU(도화향기점)",
      "address": "인천 남구  도화동 119-44번지",
      "method": "auto",
      "lat": 37.46806,
      "lng": 126.67169
    },
    {
      "rank": 1,
      "name": "1등로또복권방",
      "address": "경기 의정부시 용현동  266-10번지",
      "method": "manual",
      "lat": 37.734592,
      "lng": 127.08003
    },
    {
      "rank": 1,
      "name": "CU(제천고암점)",
      "address": "충북 제천시 고암로 69 1층 CU편의점",
      "method": "manual",
      "lat": 37.157856,
      "lng": 128.21468
    },
    {
      "rank": 1,
      "name": "로또명당 청원점",
      "address": "충북 청주시 청원구 오창읍 각리 651-3번지 금일프라자 102호",
      "method": "manual",
      "lat": 36.708595,
      "lng": 127.414215
    }
  ]
}