{
  "round": 690,
  "date": "2016-02-20",
  "nums": [
    24,
    25,
    33,
    34,
    38,
    39
  ],
  "bonus": 43,
  "firstWinAmount": 1126507625,
  "firstWinners": 15,
  "totalSales": 69142025000,
  "prizes": {
    "first": {
      "amount": 1126507625,
      "winners": 15
    },
    "second": {
      "amount": 82831444,
      "winners": 34
    },
    "third": {
      "amount": 1589317,
      "winners": 1772
    },
    "fourth": {
      "amount": 50000,
      "winners": 87970
    },
    "fifth": {
      "amount": 5000,
      "winners": 1528472
    }
  },
  "methodCounts": {
    "auto": 3,
    "manual": 12,
    "mixed": 0
  },
  "topStores": [
    {
      "rank": 1,
      "name": "복권나라",
      "address": "서울 관악구 남부순환로 1739-9",
      "method": "auto",
      "lat": 37.482788,
      "lng": 126.943474
    },
    {
      "rank": 1,
      "name": "신나라복권나라",
      "address": "서울 동대문구 이문로 201",
      "method": "auto",
      "lat": 37.604477,
      "lng": 127.061775
    },
    {
      "rank": 1,
      "name": "GS25 동작양지",
      "address": "서울 동작구 상도동 365-1번지",
      "method": "manual",
      "lat": 37.50203,
      "lng": 126.94469
    },
    {
      "rank": 1,
      "name": "로또판매점(바이더웨이)",
      "address": "부산 금정구 구서동 415-2번지 세븐일레븐내",
      "method": "manual",
      "lat": 35.246536,
      "lng": 129.09087
    },
    {
      "rank": 1,
      "name": "씨스페이스(범어사역점)",
      "address": "부산 금정구 남산동 21-4번지",
      "method": "manual",
      "lat": 35.27165,
      "lng": 129.09244
    },
    {
      "rank": 1,
      "name": "행운 마트",
      "address": "인천 중구 운중로 39-2 1층 1호",
      "method": "manual",
      "lat": 37.493896,
      "lng": 126.53794
    },
    {
      "rank": 1,
      "name": "로또25",
      "address": "울산 남구 삼산동 1543-1번지",
      "method": "auto",
      "lat": 35.5436,
      "lng": 129.3422
    },
    {
      "rank": 1,
      "name": "팡팡사동복권방",
      "address": "경기 안산시 상록구 석호로 170 1층",
      "method": "manual",
      "lat": 37.296867,
      "lng": 126.85053
    },
    {
      "rank": 1,
      "name": "엑스트라",
      "address": "경기 안성시 인지동(안성2동) 419-2 1층 엑스트라비디오",
      "method": "manual",
      "lat": 37.00457,
      "lng": 127.26838
    },
    {
      "rank": 1,
      "name": "행운복권방",
      "address": "경기 양평군 용문로 358-1 1층",
      "method": "manual",
      "lat": 37.484356,
      "lng": 127.59362
    },
    {
      "rank": 1,
      "name": "팡팡복권방",
      "address": "충북 진천군 상산로 71",
      "method": "manual",
      "lat": 36.854687,
      "lng": 127.44187
    },
    {
      "rank": 1,
      "name": "부자복권방",
      "address": "전북 군산시 구시장로 4",
      "method": "manual",
      "lat": 35.980473,
      "lng": 126.72023
    },
    {
      "rank": 1,
      "name": "대광복권방",
      "address": "전남 화순군 칠충로 55 대광로제비앙 대광그린상가동 1층109호",
      "method": "manual",
      "lat": 35.05548,
      "lng": 126.97712
    },
    {
      "rank": 1,
      "name": "행운의집제1호점",
      "address": "경북 안동시 영가로 24",
      "method": "manual",
      "lat": 36.56516,
      "lng": 128.7333
    },
    {
      "rank": 1,
      "name": "CU(마산합성점)",
      "address": "경남 창원시 마산회원구 합성동 316-37번지",
      "method": "manual",
      "lat": 35.228886,
      "lng": 128.58452
    }
  ]
}