{
  "round": 715,
  "date": "2016-08-13",
  "nums": [
    2,
    7,
    27,
    33,
    41,
    44
  ],
  "bonus": 10,
  "firstWinAmount": 2605510438,
  "firstWinners": 6,
  "totalSales": 65794607000,
  "prizes": {
    "first": {
      "amount": 2605510438,
      "winners": 6
    },
    "second": {
      "amount": 42713286,
      "winners": 61
    },
    "third": {
      "amount": 1391090,
      "winners": 1873
    },
    "fourth": {
      "amount": 50000,
      "winners": 90747
    },
    "fifth": {
      "amount": 5000,
      "winners": 1503174
    }
  },
  "methodCounts": {
    "auto": 4,
    "manual": 1,
    "mixed": 0
  },
  "topStores": [
    {
      "rank": 1,
      "name": "CU(성북장위점)",
      "address": "서울 성북구 정릉로38마길 29 101~104호 CU정릉센터점 내",
      "method": "auto",
      "lat": 37.60101,
      "lng": 127.01579
    },
    {
      "rank": 1,
      "name": "부자나라석촌점",
      "address": "서울 송파구 백제고분로17길 37",
      "method": "auto",
      "lat": 37.508816,
      "lng": 127.085396
    },
    {
      "rank": 1,
      "name": "세븐일레븐 현풍대로점",
      "address": "대구 달성군 비슬로 581 세븐일레븐현풍대로점",
      "method": "auto",
      "lat": 35.690544,
      "lng": 128.44447
    },
    {
      "rank": 1,
      "name": "행운로또복권",
      "address": "경기 수원시 팔달구 인계동 907-3",
      "method": "mixed",
      "lat": 37.269787,
      "lng": 127.02078
    },
    {
      "rank": 1,
      "name": "로또",
      "address": "경기 포천시 죽엽산로196번길 4",
      "method": "auto",
      "lat": 37.814644,
      "lng": 127.16044
    },
    {
      "rank": 1,
      "name": "보은로또판매점",
      "address": "충북 보은군 보청대로 1892 식자재마트 앞 가판",
      "method": "manual",
      "lat": 36.489136,
      "lng": 127.71749
    }
  ]
}