{
  "round": 721,
  "date": "2016-09-24",
  "nums": [
    1,
    28,
    35,
    41,
    43,
    44
  ],
  "bonus": 31,
  "firstWinAmount": 2273767360,
  "firstWinners": 8,
  "totalSales": 71627567000,
  "prizes": {
    "first": {
      "amount": 2273767360,
      "winners": 8
    },
    "second": {
      "amount": 75792246,
      "winners": 40
    },
    "third": {
      "amount": 1886553,
      "winners": 1607
    },
    "fourth": {
      "amount": 50000,
      "winners": 84770
    },
    "fifth": {
      "amount": 5000,
      "winners": 1464353
    }
  },
  "methodCounts": {
    "auto": 7,
    "manual": 1,
    "mixed": 0
  },
  "topStores": [
    {
      "rank": 1,
      "name": "삼정그린환경",
      "address": "서울 강동구 양재대로 1355 오스카상가136호",
      "method": "manual",
      "lat": 37.527393,
      "lng": 127.13561
    },
    {
      "rank": 1,
      "name": "복권명당곰달래점",
      "address": "서울 강서구 화곡동 799-10번지",
      "method": "auto",
      "lat": 37.53213,
      "lng": 126.860245
    },
    {
      "rank": 1,
      "name": "행운복권",
      "address": "서울 관악구 봉천동(청룡동) 1568-8",
      "method": "auto",
      "lat": 37.47902,
      "lng": 126.9511
    },
    {
      "rank": 1,
      "name": "크로바",
      "address": "서울 종로구 종로54길 42",
      "method": "auto",
      "lat": 37.57039,
      "lng": 127.01396
    },
    {
      "rank": 1,
      "name": "노다지복권방",
      "address": "서울 종로구 종로 333",
      "method": "auto",
      "lat": 37.572903,
      "lng": 127.01451
    },
    {
      "rank": 1,
      "name": "부흥청과식품점",
      "address": "경북 경산시 하양읍 하양로 35 우방3차상가",
      "method": "auto",
      "lat": 35.90926,
      "lng": 128.81354
    },
    {
      "rank": 1,
      "name": "CU(구평희망점)",
      "address": "경북 구미시 인동46길 5 cu 구평희망점",
      "method": "auto",
      "lat": 36.09269,
      "lng": 128.44077
    },
    {
      "rank": 1,
      "name": "나나 복권판매소",
      "address": "경남 양산시 상북중앙로 319 복권판매점",
      "method": "auto",
      "lat": 35.4122,
      "lng": 129.05919
    }
  ]
}