{
  "round": 724,
  "date": "2016-10-15",
  "nums": [
    2,
    8,
    33,
    35,
    37,
    41
  ],
  "bonus": 14,
  "firstWinAmount": 1427789813,
  "firstWinners": 12,
  "totalSales": 69987274000,
  "prizes": {
    "first": {
      "amount": 1427789813,
      "winners": 12
    },
    "second": {
      "amount": 51919630,
      "winners": 55
    },
    "third": {
      "amount": 1557873,
      "winners": 1833
    },
    "fourth": {
      "amount": 50000,
      "winners": 90083
    },
    "fifth": {
      "amount": 5000,
      "winners": 1528970
    }
  },
  "methodCounts": {
    "auto": 8,
    "manual": 4,
    "mixed": 0
  },
  "topStores": [
    {
      "rank": 1,
      "name": "토큰판매점",
      "address": "서울 강북구 도봉로 45 가판",
      "method": "manual",
      "lat": 37.61315,
      "lng": 127.02949
    },
    {
      "rank": 1,
      "name": "진텔레콤",
      "address": "서울 구로구 구로중앙로 216-1 1층",
      "method": "auto",
      "lat": 37.505302,
      "lng": 126.877335
    },
    {
      "rank": 1,
      "name": "행복슈퍼",
      "address": "서울 성북구 동소문로 49",
      "method": "manual",
      "lat": 37.591003,
      "lng": 127.01112
    },
    {
      "rank": 1,
      "name": "캐논종합",
      "address": "서울 용산구 청파로 101 나진10동가125호",
      "method": "auto",
      "lat": 37.533337,
      "lng": 126.962296
    },
    {
      "rank": 1,
      "name": "씨유 트윈시티",
      "address": "경기 고양시 일산동구 위시티로 75 외1필지 풍산트윈시티1동113호",
      "method": "auto",
      "lat": 37.678833,
      "lng": 126.81109
    },
    {
      "rank": 1,
      "name": "명동슈퍼",
      "address": "경기 광명시 디지털로 17 1동 107호(철산동, (주)티오티비 오렌지타운)",
      "method": "manual",
      "lat": 37.474014,
      "lng": 126.86936
    },
    {
      "rank": 1,
      "name": "천하명당복권방",
      "address": "경기 수원시 팔달구 매산로 2",
      "method": "auto",
      "lat": 37.26661,
      "lng": 127.00185
    },
    {
      "rank": 1,
      "name": "행운나라복권방",
      "address": "경기 안양시 만안구 충훈로 95",
      "method": "manual",
      "lat": 37.40742,
      "lng": 126.89791
    },
    {
      "rank": 1,
      "name": "스파황금나눔로또",
      "address": "충남 보령시 대천방조제로 20 주2동 1~2호",
      "method": "auto",
      "lat": 36.34624,
      "lng": 126.58906
    },
    {
      "rank": 1,
      "name": "원동슈퍼",
      "address": "충남 보령시 대천로 28",
      "method": "auto",
      "lat": 36.35113,
      "lng": 126.59745
    },
    {
      "rank": 1,
      "name": "알리바이(나주점)",
      "address": "전남 나주시 나주로 142 알리바이",
      "method": "auto",
      "lat": 35.031338,
      "lng": 126.71719
    },
    {
      "rank": 1,
      "name": "CU로또 냉림대박점",
      "address": "경북 상주시 냉림동 93-78번지 CU냉림주공점",
      "method": "auto",
      "lat": 36.422737,
      "lng": 128.16463
    }
  ]
}