{
  "round": 725,
  "date": "2016-10-22",
  "nums": [
    6,
    7,
    19,
    21,
    41,
    43
  ],
  "bonus": 38,
  "firstWinAmount": 1579217250,
  "firstWinners": 11,
  "totalSales": 70208676000,
  "prizes": {
    "first": {
      "amount": 1579217250,
      "winners": 11
    },
    "second": {
      "amount": 61600673,
      "winners": 47
    },
    "third": {
      "amount": 1612943,
      "winners": 1795
    },
    "fourth": {
      "amount": 50000,
      "winners": 88359
    },
    "fifth": {
      "amount": 5000,
      "winners": 1504907
    }
  },
  "methodCounts": {
    "auto": 7,
    "manual": 4,
    "mixed": 0
  },
  "topStores": [
    {
      "rank": 1,
      "name": "드림로또",
      "address": "서울 은평구 진관동 72 1층 112호",
      "method": "auto",
      "lat": 37.638535,
      "lng": 126.92209
    },
    {
      "rank": 1,
      "name": "복권",
      "address": "서울 중구 을지로 지하 58 을지입구지하도상가 92호",
      "method": "auto",
      "lat": 37.566036,
      "lng": 126.98364
    },
    {
      "rank": 1,
      "name": "고향편의점복권방",
      "address": "대구 북구 노원로 184",
      "method": "manual",
      "lat": 35.89945,
      "lng": 128.5801
    },
    {
      "rank": 1,
      "name": "복권명당",
      "address": "대구 북구 복현로 32-1",
      "method": "auto",
      "lat": 35.899063,
      "lng": 128.58038
    },
    {
      "rank": 1,
      "name": "코사24편의점 (나들가게)",
      "address": "경기 고양시 일산서구 일산로 502 후곡마을14단지 105,106호",
      "method": "auto",
      "lat": 37.677185,
      "lng": 126.77169
    },
    {
      "rank": 1,
      "name": "행운Cafe",
      "address": "경기 김포시 김포한강1로97번길 10-14 1동 101호",
      "method": "manual",
      "lat": 37.64755,
      "lng": 126.671555
    },
    {
      "rank": 1,
      "name": "로또암반수베팅샵",
      "address": "경기 남양주시 수레로 32",
      "method": "manual",
      "lat": 37.587234,
      "lng": 127.215675
    },
    {
      "rank": 1,
      "name": "HX복권방",
      "address": "경기 이천시 부발읍 아미리 726-9 현대시티플라자106호",
      "method": "auto",
      "lat": 37.25275,
      "lng": 127.48955
    },
    {
      "rank": 1,
      "name": "천사마트",
      "address": "충남 천안시 서북구 두정로 117 상가1층6호",
      "method": "manual",
      "lat": 36.834194,
      "lng": 127.12997
    },
    {
      "rank": 1,
      "name": "대광복권방",
      "address": "전남 화순군 칠충로 55 대광로제비앙 대광그린상가동 1층109호",
      "method": "auto",
      "lat": 35.05548,
      "lng": 126.97712
    },
    {
      "rank": 1,
      "name": "대도레코드사",
      "address": "경남 진주시 진양호로 334",
      "method": "auto",
      "lat": 35.182484,
      "lng": 128.06752
    }
  ]
}