{
  "round": 730,
  "date": "2016-11-26",
  "nums": [
    4,
    10,
    14,
    15,
    18,
    22
  ],
  "bonus": 39,
  "firstWinAmount": 2017382110,
  "firstWinners": 8,
  "totalSales": 66934105000,
  "prizes": {
    "first": {
      "amount": 2017382110,
      "winners": 8
    },
    "second": {
      "amount": 59774285,
      "winners": 45
    },
    "third": {
      "amount": 1544999,
      "winners": 1741
    },
    "fourth": {
      "amount": 50000,
      "winners": 88791
    },
    "fifth": {
      "amount": 5000,
      "winners": 1501752
    }
  },
  "methodCounts": {
    "auto": 6,
    "manual": 2,
    "mixed": 0
  },
  "topStores": [
    {
      "rank": 1,
      "name": "새로나문구",
      "address": "서울 양천구 신정동 294-58번지",
      "method": "manual",
      "lat": 37.518898,
      "lng": 126.87131
    },
    {
      "rank": 1,
      "name": "부일카서비스",
      "address": "부산 동구 자성로133번길 35",
      "method": "auto",
      "lat": 35.140015,
      "lng": 129.06306
    },
    {
      "rank": 1,
      "name": "으뜸우리들복권방",
      "address": "울산 남구 울밀로 2907",
      "method": "auto",
      "lat": 35.555,
      "lng": 129.26576
    },
    {
      "rank": 1,
      "name": "복권방",
      "address": "경기 안양시 동안구 부림로 194",
      "method": "auto",
      "lat": 37.400047,
      "lng": 126.96133
    },
    {
      "rank": 1,
      "name": "행운복권방",
      "address": "강원 인제군 북면 금강로 23 1층",
      "method": "auto",
      "lat": 38.122444,
      "lng": 128.2068
    },
    {
      "rank": 1,
      "name": "복권나라",
      "address": "강원 정선군 정선로 1333-1 복권방",
      "method": "manual",
      "lat": 37.379654,
      "lng": 128.66212
    },
    {
      "rank": 1,
      "name": "미래유통",
      "address": "전남 목포시 영산로 623",
      "method": "auto",
      "lat": 34.82103,
      "lng": 126.42085
    },
    {
      "rank": 1,
      "name": "한솔",
      "address": "제주 제주시 아라일동 6139",
      "method": "auto",
      "lat": 33.47142,
      "lng": 126.546005
    }
  ]
}