{
  "round": 734,
  "date": "2016-12-24",
  "nums": [
    6,
    16,
    37,
    38,
    41,
    45
  ],
  "bonus": 18,
  "firstWinAmount": 1949395500,
  "firstWinners": 9,
  "totalSales": 71457582000,
  "prizes": {
    "first": {
      "amount": 1949395500,
      "winners": 9
    },
    "second": {
      "amount": 81224813,
      "winners": 36
    },
    "third": {
      "amount": 1663307,
      "winners": 1758
    },
    "fourth": {
      "amount": 50000,
      "winners": 92514
    },
    "fifth": {
      "amount": 5000,
      "winners": 1542069
    }
  },
  "methodCounts": {
    "auto": 8,
    "manual": 1,
    "mixed": 0
  },
  "topStores": [
    {
      "rank": 1,
      "name": "스파",
      "address": "서울 노원구 동일로 1493 상계주공아파트(10단지) 주공10단지종합상가111",
      "method": "auto",
      "lat": 37.66166,
      "lng": 127.05787
    },
    {
      "rank": 1,
      "name": "가로판매점",
      "address": "서울 은평구 대조동 185-5번지",
      "method": "auto",
      "lat": 37.618237,
      "lng": 126.92146
    },
    {
      "rank": 1,
      "name": "로또(파발마점)",
      "address": "경기 시흥시 마유로 415 역전프라자105호",
      "method": "manual",
      "lat": 37.351974,
      "lng": 126.740585
    },
    {
      "rank": 1,
      "name": "복권나라",
      "address": "전북 군산시 번영로 891",
      "method": "auto",
      "lat": 35.94672,
      "lng": 126.81039
    },
    {
      "rank": 1,
      "name": "팡팡복권마트.잡화슈퍼",
      "address": "전북 전주시 덕진구 가리내로 26",
      "method": "auto",
      "lat": 35.834366,
      "lng": 127.13327
    },
    {
      "rank": 1,
      "name": "복권명당",
      "address": "경북 경주시 동문로 46",
      "method": "auto",
      "lat": 35.848606,
      "lng": 129.2142
    },
    {
      "rank": 1,
      "name": "로또복권역전점",
      "address": "경북 경주시 금성로259번길 38 1층 CU 노서점 내",
      "method": "auto",
      "lat": 35.841015,
      "lng": 129.20303
    },
    {
      "rank": 1,
      "name": "로또행운마트",
      "address": "경남 김해시 능동로 177 복권판매점",
      "method": "auto",
      "lat": 35.203793,
      "lng": 128.81001
    },
    {
      "rank": 1,
      "name": "GS25(창원코아점)",
      "address": "경남 창원시 성산구 중앙동 84-1번지",
      "method": "auto",
      "lat": 35.226273,
      "lng": 128.67802
    }
  ]
}