{
  "round": 741,
  "date": "2017-02-11",
  "nums": [
    5,
    21,
    27,
    34,
    44,
    45
  ],
  "bonus": 16,
  "firstWinAmount": 3043595938,
  "firstWinners": 6,
  "totalSales": 74392585000,
  "prizes": {
    "first": {
      "amount": 3043595938,
      "winners": 6
    },
    "second": {
      "amount": 55338108,
      "winners": 55
    },
    "third": {
      "amount": 1664077,
      "winners": 1829
    },
    "fourth": {
      "amount": 50000,
      "winners": 95007
    },
    "fifth": {
      "amount": 5000,
      "winners": 1619435
    }
  },
  "methodCounts": {
    "auto": 5,
    "manual": 1,
    "mixed": 0
  },
  "topStores": [
    {
      "rank": 1,
      "name": "흥부네복권",
      "address": "인천 부평구 부흥로243번길 7 대우아파트상가102호",
      "method": "auto",
      "lat": 37.499496,
      "lng": 126.71825
    },
    {
      "rank": 1,
      "name": "시네월드일곡점",
      "address": "광주 북구 설죽로 514",
      "method": "auto",
      "lat": 35.205006,
      "lng": 126.89824
    },
    {
      "rank": 1,
      "name": "대박",
      "address": "경기 구리시 안골로103번길 46",
      "method": "auto",
      "lat": 37.599422,
      "lng": 127.14154
    },
    {
      "rank": 1,
      "name": "로또명당구래점",
      "address": "경기 김포시 구래동 6883-16 경서프라자 106호 CU김포구래점",
      "method": "auto",
      "lat": 37.64419,
      "lng": 126.627335
    },
    {
      "rank": 1,
      "name": "죽향복권방",
      "address": "전남 담양군 죽녹원로 33",
      "method": "auto",
      "lat": 35.317688,
      "lng": 126.98519
    },
    {
      "rank": 1,
      "name": "행운마트",
      "address": "경남 통영시 죽림4로 18",
      "method": "manual",
      "lat": 34.885555,
      "lng": 128.41646
    }
  ]
}