{
  "round": 744,
  "date": "2017-03-04",
  "nums": [
    10,
    15,
    18,
    21,
    34,
    41
  ],
  "bonus": 43,
  "firstWinAmount": 1155411575,
  "firstWinners": 15,
  "totalSales": 73507293000,
  "prizes": {
    "first": {
      "amount": 1155411575,
      "winners": 15
    },
    "second": {
      "amount": 47352934,
      "winners": 61
    },
    "third": {
      "amount": 1039414,
      "winners": 2779
    },
    "fourth": {
      "amount": 50000,
      "winners": 109229
    },
    "fifth": {
      "amount": 5000,
      "winners": 1636793
    }
  },
  "methodCounts": {
    "auto": 8,
    "manual": 7,
    "mixed": 0
  },
  "topStores": [
    {
      "rank": 1,
      "name": "위드미강동본점",
      "address": "서울 강동구 성내동 38-3번지",
      "method": "manual",
      "lat": 37.53613,
      "lng": 127.125595
    },
    {
      "rank": 1,
      "name": "단골집편의점",
      "address": "서울 강동구 구천면로 194",
      "method": "manual",
      "lat": 37.540585,
      "lng": 127.12622
    },
    {
      "rank": 1,
      "name": "부일카서비스",
      "address": "부산 동구 자성로133번길 35",
      "method": "auto",
      "lat": 35.140015,
      "lng": 129.06306
    },
    {
      "rank": 1,
      "name": "왕대박복권게임방",
      "address": "대구 달서구 달서대로 713",
      "method": "manual",
      "lat": 35.862953,
      "lng": 128.49113
    },
    {
      "rank": 1,
      "name": "세븐일레븐 수완점",
      "address": "광주 광산구 장신로 68  101호",
      "method": "auto",
      "lat": 35.190487,
      "lng": 126.81769
    },
    {
      "rank": 1,
      "name": "시청슈퍼",
      "address": "광주 동구 무등로 309-1",
      "method": "auto",
      "lat": 35.162334,
      "lng": 126.9171
    },
    {
      "rank": 1,
      "name": "천하명당복권방역전점",
      "address": "대전 동구 대전로 815",
      "method": "manual",
      "lat": 36.332386,
      "lng": 127.43188
    },
    {
      "rank": 1,
      "name": "천하제일복권명당유성점",
      "address": "대전 유성구 유성대로654번길 111",
      "method": "manual",
      "lat": 36.350956,
      "lng": 127.33514
    },
    {
      "rank": 1,
      "name": "노다지복권방",
      "address": "경기 광명시 범안로 1043 (하안동, 원촌빌딩 1층)",
      "method": "auto",
      "lat": 37.462326,
      "lng": 126.878654
    },
    {
      "rank": 1,
      "name": "L-마트",
      "address": "경기 부천시 삼작로 22 부천테크노파크100-103",
      "method": "auto",
      "lat": 37.518986,
      "lng": 126.76236
    },
    {
      "rank": 1,
      "name": "가판대",
      "address": "경기 부천시 부일로 293,(상동)",
      "method": "manual",
      "lat": 37.488617,
      "lng": 126.762764
    },
    {
      "rank": 1,
      "name": "나눔로또 판교역점",
      "address": "경기 성남시 분당구 대왕판교로606번길 39 107호",
      "method": "auto",
      "lat": 37.396473,
      "lng": 127.11148
    },
    {
      "rank": 1,
      "name": "가판점",
      "address": "경기 성남시 수정구 수정로 188",
      "method": "auto",
      "lat": 37.443333,
      "lng": 127.14071
    },
    {
      "rank": 1,
      "name": "CU(안산와동점)",
      "address": "경기 안산시 단원구 와동 679-7",
      "method": "auto",
      "lat": 37.33241,
      "lng": 126.82774
    },
    {
      "rank": 1,
      "name": "스카이편의점",
      "address": "경기 안양시 만안구 박달로 527",
      "method": "manual",
      "lat": 37.40275,
      "lng": 126.91124
    }
  ]
}