{
  "round": 747,
  "date": "2017-03-25",
  "nums": [
    7,
    9,
    12,
    14,
    23,
    28
  ],
  "bonus": 17,
  "firstWinAmount": 1903214584,
  "firstWinners": 9,
  "totalSales": 73337880000,
  "prizes": {
    "first": {
      "amount": 1903214584,
      "winners": 9
    },
    "second": {
      "amount": 48386812,
      "winners": 59
    },
    "third": {
      "amount": 1287696,
      "winners": 2217
    },
    "fourth": {
      "amount": 50000,
      "winners": 105307
    },
    "fifth": {
      "amount": 5000,
      "winners": 1713003
    }
  },
  "methodCounts": {
    "auto": 3,
    "manual": 6,
    "mixed": 0
  },
  "topStores": [
    {
      "rank": 1,
      "name": "잠실매점",
      "address": "서울 송파구 올림픽로 269 잠실역 8번출구 앞 가판",
      "method": "auto",
      "lat": 37.514446,
      "lng": 127.10071
    },
    {
      "rank": 1,
      "name": "CU(구월프랜드점)",
      "address": "인천 남동구 구월동 1191-10번지",
      "method": "manual",
      "lat": 37.44723,
      "lng": 126.7076
    },
    {
      "rank": 1,
      "name": "CU(구월프랜드점)",
      "address": "인천 남동구 구월동 1191-10번지",
      "method": "manual",
      "lat": 37.44723,
      "lng": 126.7076
    },
    {
      "rank": 1,
      "name": "호반할인마트",
      "address": "광주 광산구 도산로9번길 40",
      "method": "manual",
      "lat": 35.127934,
      "lng": 126.790115
    },
    {
      "rank": 1,
      "name": "나눔로또 스포츠토토(김포장기점)",
      "address": "경기 김포시 김포한강1로78번길 7 장기음식주차타운 1층 110호",
      "method": "manual",
      "lat": 37.64487,
      "lng": 126.67066
    },
    {
      "rank": 1,
      "name": "대박",
      "address": "경기 안양시 동안구 관평로170번길 33",
      "method": "manual",
      "lat": 37.392975,
      "lng": 126.962234
    },
    {
      "rank": 1,
      "name": "가판대",
      "address": "경기 안양시 만안구 안양동 456-2번지",
      "method": "auto",
      "lat": 37.3927,
      "lng": 126.92598
    },
    {
      "rank": 1,
      "name": "조치원복권방",
      "address": "세종   조치원로 9-1",
      "method": "manual",
      "lat": 36.601532,
      "lng": 127.29785
    },
    {
      "rank": 1,
      "name": "씨유(거창대동점)",
      "address": "경남 거창군 거창대로 93",
      "method": "auto",
      "lat": 35.689865,
      "lng": 127.91475
    }
  ]
}