{
  "round": 763,
  "date": "2017-07-15",
  "nums": [
    3,
    8,
    16,
    32,
    34,
    43
  ],
  "bonus": 10,
  "firstWinAmount": 2138130000,
  "firstWinners": 8,
  "totalSales": 70652100000,
  "prizes": {
    "first": {
      "amount": 2138130000,
      "winners": 8
    },
    "second": {
      "amount": 63352000,
      "winners": 45
    },
    "third": {
      "amount": 1412006,
      "winners": 2019
    },
    "fourth": {
      "amount": 50000,
      "winners": 94176
    },
    "fifth": {
      "amount": 5000,
      "winners": 1562106
    }
  },
  "methodCounts": {
    "auto": 4,
    "manual": 4,
    "mixed": 0
  },
  "topStores": [
    {
      "rank": 1,
      "name": "GS25(동묘역점)",
      "address": "서울 종로구 종로 344",
      "method": "auto",
      "lat": 37.572796,
      "lng": 127.01605
    },
    {
      "rank": 1,
      "name": "뉴빅마트",
      "address": "부산 기장군 정관중앙로 48 106호",
      "method": "manual",
      "lat": 35.321114,
      "lng": 129.17929
    },
    {
      "rank": 1,
      "name": "서울복권방",
      "address": "경기 동두천시 어수로 116",
      "method": "auto",
      "lat": 37.90173,
      "lng": 127.05534
    },
    {
      "rank": 1,
      "name": "주택복권방",
      "address": "경기 용인시 수지구 풍덕천로 144-1 103호",
      "method": "manual",
      "lat": 37.323883,
      "lng": 127.09745
    },
    {
      "rank": 1,
      "name": "강릉성산점",
      "address": "강원 강릉시 구산길 58 1층 복권판매점",
      "method": "manual",
      "lat": 37.715824,
      "lng": 128.8306
    },
    {
      "rank": 1,
      "name": "로또복권",
      "address": "충북 청주시 상당구 중고개로 344 103호",
      "method": "auto",
      "lat": 36.630768,
      "lng": 127.50273
    },
    {
      "rank": 1,
      "name": "대박마트",
      "address": "충남 천안시 동남구 봉서8길 13 봉명청솔아파트상가103호",
      "method": "auto",
      "lat": 36.81099,
      "lng": 127.13251
    },
    {
      "rank": 1,
      "name": "코사마트크로바점",
      "address": "전북 전주시 덕진구 매봉로 26,(금암동)",
      "method": "manual",
      "lat": 35.840446,
      "lng": 127.14152
    }
  ]
}