{
  "round": 772,
  "date": "2017-09-16",
  "nums": [
    5,
    6,
    11,
    14,
    21,
    41
  ],
  "bonus": 32,
  "firstWinAmount": 1769608838,
  "firstWinners": 10,
  "totalSales": 74375369000,
  "prizes": {
    "first": {
      "amount": 1769608838,
      "winners": 10
    },
    "second": {
      "amount": 55648077,
      "winners": 53
    },
    "third": {
      "amount": 1455032,
      "winners": 2027
    },
    "fourth": {
      "amount": 50000,
      "winners": 103023
    },
    "fifth": {
      "amount": 5000,
      "winners": 1688350
    }
  },
  "methodCounts": {
    "auto": 4,
    "manual": 6,
    "mixed": 0
  },
  "topStores": [
    {
      "rank": 1,
      "name": "구청앞로또명당",
      "address": "서울 강북구 수유3동 191-58번지",
      "method": "auto",
      "lat": 37.639614,
      "lng": 127.0263
    },
    {
      "rank": 1,
      "name": "영일식품",
      "address": "서울 영등포구 당산로32길 10",
      "method": "manual",
      "lat": 37.526226,
      "lng": 126.8978
    },
    {
      "rank": 1,
      "name": "아이센스복권방",
      "address": "서울 중랑구 중랑역로 17,(중화동)",
      "method": "manual",
      "lat": 37.59573,
      "lng": 127.07604
    },
    {
      "rank": 1,
      "name": "선경상회",
      "address": "부산 부산진구 범천동 1252-1번지 이훼밀리마트내",
      "method": "auto",
      "lat": 35.14832,
      "lng": 129.0537
    },
    {
      "rank": 1,
      "name": "라이프마트",
      "address": "인천 중구 연안부두로53번길 36 5호",
      "method": "auto",
      "lat": 37.45236,
      "lng": 126.60402
    },
    {
      "rank": 1,
      "name": "위드미유성코아점",
      "address": "대전 유성구 문화원로6번길 103 코아마트",
      "method": "manual",
      "lat": 36.35746,
      "lng": 127.33811
    },
    {
      "rank": 1,
      "name": "위드미유성코아점",
      "address": "대전 유성구 문화원로6번길 103 코아마트",
      "method": "manual",
      "lat": 36.35746,
      "lng": 127.33811
    },
    {
      "rank": 1,
      "name": "진성식품",
      "address": "충북 제천시 의병대로 84 1층",
      "method": "manual",
      "lat": 37.136086,
      "lng": 128.20995
    },
    {
      "rank": 1,
      "name": "심마니대박복권방",
      "address": "충북 충주시 국원대로 68",
      "method": "auto",
      "lat": 36.977448,
      "lng": 127.92788
    },
    {
      "rank": 1,
      "name": "북마산복권전문점",
      "address": "경남 창원시 마산합포구 북성로 98",
      "method": "manual",
      "lat": 35.215973,
      "lng": 128.5708
    }
  ]
}