{
  "round": 789,
  "date": "2018-01-13",
  "nums": [
    2,
    6,
    7,
    12,
    19,
    45
  ],
  "bonus": 38,
  "firstWinAmount": 1140976825,
  "firstWinners": 15,
  "totalSales": 76136603000,
  "prizes": {
    "first": {
      "amount": 1140976825,
      "winners": 15
    },
    "second": {
      "amount": 40749173,
      "winners": 70
    },
    "third": {
      "amount": 1170473,
      "winners": 2437
    },
    "fourth": {
      "amount": 50000,
      "winners": 118089
    },
    "fifth": {
      "amount": 5000,
      "winners": 1868863
    }
  },
  "methodCounts": {
    "auto": 8,
    "manual": 6,
    "mixed": 0
  },
  "topStores": [
    {
      "rank": 1,
      "name": "강일코사할인마트",
      "address": "서울 강동구 고덕로97길 29 강일리버파크9단지아파트 105호",
      "method": "manual",
      "lat": 37.55984,
      "lng": 127.1788
    },
    {
      "rank": 1,
      "name": "대원슈퍼마켓",
      "address": "부산 수영구 수영로 524",
      "method": "auto",
      "lat": 35.152473,
      "lng": 129.112
    },
    {
      "rank": 1,
      "name": "만세복권",
      "address": "인천 서구 원당동(검단3동) 825-4 CU 만세원당점",
      "method": "auto",
      "lat": 37.594604,
      "lng": 126.696396
    },
    {
      "rank": 1,
      "name": "태양마트",
      "address": "대전 유성구 노은로 157 골드프라자 106호",
      "method": "mixed",
      "lat": 36.373707,
      "lng": 127.317375
    },
    {
      "rank": 1,
      "name": "노다지복권방",
      "address": "대전 중구 유천동 214-1번지",
      "method": "auto",
      "lat": 36.316895,
      "lng": 127.3982
    },
    {
      "rank": 1,
      "name": "오산제일복권",
      "address": "경기 오산시 오산로 273 1동 104호",
      "method": "auto",
      "lat": 37.15138,
      "lng": 127.06849
    },
    {
      "rank": 1,
      "name": "나라통신",
      "address": "경기 오산시 오산로 200 OK노래연습장",
      "method": "auto",
      "lat": 37.14465,
      "lng": 127.068695
    },
    {
      "rank": 1,
      "name": "백암복권",
      "address": "경기 용인시 처인구 백암로 208 옆호수",
      "method": "auto",
      "lat": 37.1652,
      "lng": 127.374794
    },
    {
      "rank": 1,
      "name": "황실복권방",
      "address": "충남 천안시 동남구 충절로 799",
      "method": "manual",
      "lat": 36.769257,
      "lng": 127.20064
    },
    {
      "rank": 1,
      "name": "황실복권방",
      "address": "충남 천안시 동남구 충절로 799",
      "method": "manual",
      "lat": 36.769257,
      "lng": 127.20064
    },
    {
      "rank": 1,
      "name": "황실복권방",
      "address": "충남 천안시 동남구 충절로 799",
      "method": "manual",
      "lat": 36.769257,
      "lng": 127.20064
    },
    {
      "rank": 1,
      "name": "황실복권방",
      "address": "충남 천안시 동남구 충절로 799",
      "method": "manual",
      "lat": 36.769257,
      "lng": 127.20064
    },
    {
      "rank": 1,
      "name": "황실복권방",
      "address": "충남 천안시 동남구 충절로 799",
      "method": "manual",
      "lat": 36.769257,
      "lng": 127.20064
    },
    {
      "rank": 1,
      "name": "도소매복권방",
      "address": "전남 광양시 광영로 146",
      "method": "auto",
      "lat": 34.965645,
      "lng": 127.71704
    },
    {
      "rank": 1,
      "name": "이삭",
      "address": "전남 목포시 남악2로 54 남악프라자A동103호",
      "method": "auto",
      "lat": 34.809925,
      "lng": 126.45526
    }
  ]
}