{
  "round": 790,
  "date": "2018-01-20",
  "nums": [
    3,
    8,
    19,
    27,
    30,
    41
  ],
  "bonus": 12,
  "firstWinAmount": 1160516274,
  "firstWinners": 16,
  "totalSales": 78978881000,
  "prizes": {
    "first": {
      "amount": 1160516274,
      "winners": 16
    },
    "second": {
      "amount": 52452713,
      "winners": 59
    },
    "third": {
      "amount": 1280394,
      "winners": 2417
    },
    "fourth": {
      "amount": 50000,
      "winners": 113336
    },
    "fifth": {
      "amount": 5000,
      "winners": 1812992
    }
  },
  "methodCounts": {
    "auto": 4,
    "manual": 11,
    "mixed": 0
  },
  "topStores": [
    {
      "rank": 1,
      "name": "가로판매점",
      "address": "서울 금천구 시흥대로 217 시흥동우체국",
      "method": "manual",
      "lat": 37.453144,
      "lng": 126.9007
    },
    {
      "rank": 1,
      "name": "망원복권방",
      "address": "서울 마포구 망원동 486-1번지",
      "method": "auto",
      "lat": 37.55746,
      "lng": 126.90624
    },
    {
      "rank": 1,
      "name": "농가마트",
      "address": "서울 양천구 중앙로 264 1층",
      "method": "manual",
      "lat": 37.519985,
      "lng": 126.853294
    },
    {
      "rank": 1,
      "name": "농가마트",
      "address": "서울 양천구 중앙로 264 1층",
      "method": "manual",
      "lat": 37.519985,
      "lng": 126.853294
    },
    {
      "rank": 1,
      "name": "씨스페이스(신서혁신점)",
      "address": "대구 동구 각산동 1033-3번지",
      "method": "manual",
      "lat": 35.878517,
      "lng": 128.71376
    },
    {
      "rank": 1,
      "name": "로또명당복권방",
      "address": "인천 강화군 강화대로393번길 4",
      "method": "manual",
      "lat": 37.74619,
      "lng": 126.486275
    },
    {
      "rank": 1,
      "name": "즐거운복권방",
      "address": "인천 미추홀구 미추홀대로 541",
      "method": "manual",
      "lat": 37.44568,
      "lng": 126.67861
    },
    {
      "rank": 1,
      "name": "베스토아(용전2호)",
      "address": "대전 동구 동서대로 1689 복합터미널서관1층59호",
      "method": "manual",
      "lat": 36.35038,
      "lng": 127.43664
    },
    {
      "rank": 1,
      "name": "아이러브마트복권방",
      "address": "울산 중구 유곡로 19-1",
      "method": "auto",
      "lat": 35.55638,
      "lng": 129.30725
    },
    {
      "rank": 1,
      "name": "로또복권중앙역판매점",
      "address": "경기 안산시 단원구 석수로 55 102호",
      "method": "manual",
      "lat": 37.341465,
      "lng": 126.80755
    },
    {
      "rank": 1,
      "name": "희망을주는사람",
      "address": "경기 용인시 처인구 양지로 111 1층 상가",
      "method": "manual",
      "lat": 37.23453,
      "lng": 127.28051
    },
    {
      "rank": 1,
      "name": "대박로또",
      "address": "충남 천안시 서북구 성환2로 45",
      "method": "auto",
      "lat": 36.91173,
      "lng": 127.130165
    },
    {
      "rank": 1,
      "name": "송도하우스",
      "address": "전남 목포시 영산로 525 목포터미널 내",
      "method": "auto",
      "lat": 34.812717,
      "lng": 126.41759
    },
    {
      "rank": 1,
      "name": "대풍로또판매점",
      "address": "경남 김해시 번화2로 36",
      "method": "mixed",
      "lat": 35.192284,
      "lng": 128.80525
    },
    {
      "rank": 1,
      "name": "늘봄편의점",
      "address": "경남 진주시 솔밭로 80",
      "method": "manual",
      "lat": 35.176178,
      "lng": 128.10738
    },
    {
      "rank": 1,
      "name": "대방상회",
      "address": "경남 창원시 성산구 대암로 123",
      "method": "manual",
      "lat": 35.214573,
      "lng": 128.70937
    }
  ]
}