{
  "round": 792,
  "date": "2018-02-03",
  "nums": [
    2,
    7,
    19,
    25,
    29,
    36
  ],
  "bonus": 16,
  "firstWinAmount": 2655736768,
  "firstWinners": 7,
  "totalSales": 76339003000,
  "prizes": {
    "first": {
      "amount": 2655736768,
      "winners": 7
    },
    "second": {
      "amount": 47667071,
      "winners": 65
    },
    "third": {
      "amount": 1582411,
      "winners": 1958
    },
    "fourth": {
      "amount": 50000,
      "winners": 99185
    },
    "fifth": {
      "amount": 5000,
      "winners": 1684675
    }
  },
  "methodCounts": {
    "auto": 6,
    "manual": 1,
    "mixed": 0
  },
  "topStores": [
    {
      "rank": 1,
      "name": "사이버정보통신",
      "address": "부산 부산진구 동평로 411 백조상가동103-1호",
      "method": "auto",
      "lat": 35.17425,
      "lng": 129.07022
    },
    {
      "rank": 1,
      "name": "대박로또판매점",
      "address": "경기 수원시 장안구 서부로 2129-1 태양공예가구",
      "method": "auto",
      "lat": 37.298717,
      "lng": 126.97125
    },
    {
      "rank": 1,
      "name": "-",
      "address": "경기 의정부시 의정부동 175-6번지 농협중앙회 앞 가판",
      "method": "manual",
      "lat": 37.738842,
      "lng": 127.04842
    },
    {
      "rank": 1,
      "name": "평창복권나라",
      "address": "강원 평창군 평창읍 하리 148-13번지",
      "method": "auto",
      "lat": 37.367405,
      "lng": 128.39522
    },
    {
      "rank": 1,
      "name": "자수정슈퍼",
      "address": "전북 전주시 완산구 용머리로 152",
      "method": "auto",
      "lat": 35.805733,
      "lng": 127.12693
    },
    {
      "rank": 1,
      "name": "이삭",
      "address": "전남 목포시 남악2로 54 남악프라자A동103호",
      "method": "auto",
      "lat": 34.809925,
      "lng": 126.45526
    },
    {
      "rank": 1,
      "name": "미니마트복권방",
      "address": "경북 안동시 경북대로 476 1층 미니마트 송현점",
      "method": "auto",
      "lat": 36.57102,
      "lng": 128.69771
    }
  ]
}