{
  "round": 793,
  "date": "2018-02-10",
  "nums": [
    10,
    15,
    21,
    35,
    38,
    43
  ],
  "bonus": 31,
  "firstWinAmount": 3750146775,
  "firstWinners": 5,
  "totalSales": 76177477000,
  "prizes": {
    "first": {
      "amount": 3750146775,
      "winners": 5
    },
    "second": {
      "amount": 51231514,
      "winners": 61
    },
    "third": {
      "amount": 1529674,
      "winners": 2043
    },
    "fourth": {
      "amount": 50000,
      "winners": 98216
    },
    "fifth": {
      "amount": 5000,
      "winners": 1635392
    }
  },
  "methodCounts": {
    "auto": 5,
    "manual": 0,
    "mixed": 0
  },
  "topStores": [
    {
      "rank": 1,
      "name": "복권토큰판매소",
      "address": "대구 남구 대명로 230 토큰박스",
      "method": "auto",
      "lat": 35.84097,
      "lng": 128.58208
    },
    {
      "rank": 1,
      "name": "천하명당복권전문점",
      "address": "광주 광산구 사암로216번길 10-9",
      "method": "auto",
      "lat": 35.16294,
      "lng": 126.80916
    },
    {
      "rank": 1,
      "name": "CU(광주매곡점)",
      "address": "광주 북구 매곡동 42-5번지",
      "method": "auto",
      "lat": 35.188934,
      "lng": 126.89414
    },
    {
      "rank": 1,
      "name": "그날복권판매점",
      "address": "경기 수원시 권선구 하탑로 54 죽전빌딩 1층 GS25",
      "method": "auto",
      "lat": 37.26911,
      "lng": 126.977646
    },
    {
      "rank": 1,
      "name": "로또판매점",
      "address": "충남 당진시 당진중앙1로 129",
      "method": "auto",
      "lat": 36.895454,
      "lng": 126.63089
    }
  ]
}