{
  "round": 802,
  "date": "2018-04-14",
  "nums": [
    10,
    11,
    12,
    18,
    24,
    42
  ],
  "bonus": 27,
  "firstWinAmount": 1082947993,
  "firstWinners": 16,
  "totalSales": 75146781000,
  "prizes": {
    "first": {
      "amount": 1082947993,
      "winners": 16
    },
    "second": {
      "amount": 43102408,
      "winners": 67
    },
    "third": {
      "amount": 1308501,
      "winners": 2207
    },
    "fourth": {
      "amount": 50000,
      "winners": 107980
    },
    "fifth": {
      "amount": 5000,
      "winners": 1814300
    }
  },
  "methodCounts": {
    "auto": 5,
    "manual": 11,
    "mixed": 0
  },
  "topStores": [
    {
      "rank": 1,
      "name": "씨스페이스(정릉3점)",
      "address": "서울 성북구 정릉동(정릉제3동) 372-7",
      "method": "manual",
      "lat": 37.608723,
      "lng": 127.00776
    },
    {
      "rank": 1,
      "name": "가판점(신문)",
      "address": "서울 영등포구 양평로 48",
      "method": "manual",
      "lat": 37.534508,
      "lng": 126.90126
    },
    {
      "rank": 1,
      "name": "가로판매대",
      "address": "서울 종로구 통일로 156-1",
      "method": "manual",
      "lat": 37.568184,
      "lng": 126.96467
    },
    {
      "rank": 1,
      "name": "가로판매대",
      "address": "서울 종로구 통일로 156-1",
      "method": "manual",
      "lat": 37.568184,
      "lng": 126.96467
    },
    {
      "rank": 1,
      "name": "가로판매대",
      "address": "서울 종로구 통일로 156-1",
      "method": "manual",
      "lat": 37.568184,
      "lng": 126.96467
    },
    {
      "rank": 1,
      "name": "세진전자통신",
      "address": "대구 서구 서대구로 156",
      "method": "auto",
      "lat": 35.8719,
      "lng": 128.5552
    },
    {
      "rank": 1,
      "name": "대박천하마트",
      "address": "인천 부평구 굴포로 48",
      "method": "auto",
      "lat": 37.51157,
      "lng": 126.72634
    },
    {
      "rank": 1,
      "name": "복권방",
      "address": "경기 고양시 덕양구 동송로 20 1층",
      "method": "manual",
      "lat": 37.648407,
      "lng": 126.899185
    },
    {
      "rank": 1,
      "name": "복권방",
      "address": "경기 고양시 덕양구 동송로 20 1층",
      "method": "manual",
      "lat": 37.648407,
      "lng": 126.899185
    },
    {
      "rank": 1,
      "name": "로또모형방",
      "address": "경기 고양시 일산서구 송포로 35",
      "method": "auto",
      "lat": 37.669575,
      "lng": 126.73231
    },
    {
      "rank": 1,
      "name": "대박찬스",
      "address": "경기 성남시 중원구 금광동 4460번지",
      "method": "auto",
      "lat": 37.44687,
      "lng": 127.15818
    },
    {
      "rank": 1,
      "name": "로또휴게실",
      "address": "경기 용인시 기흥구 용구대로 1885",
      "method": "manual",
      "lat": 37.256386,
      "lng": 127.10432
    },
    {
      "rank": 1,
      "name": "로또휴게실",
      "address": "경기 용인시 기흥구 용구대로 1885",
      "method": "manual",
      "lat": 37.256386,
      "lng": 127.10432
    },
    {
      "rank": 1,
      "name": "로또휴게실",
      "address": "경기 용인시 기흥구 용구대로 1885",
      "method": "manual",
      "lat": 37.256386,
      "lng": 127.10432
    },
    {
      "rank": 1,
      "name": "도깨비로또",
      "address": "경기 평택시 동삭동(비전1동) 680-2 홈플러스365",
      "method": "manual",
      "lat": 37.0123,
      "lng": 127.10104
    },
    {
      "rank": 1,
      "name": "GS25(제주이도점)",
      "address": "제주 제주시 이도이동(이도2동) 1064-21 1층",
      "method": "auto",
      "lat": 33.49573,
      "lng": 126.53614
    }
  ]
}