{
  "round": 856,
  "date": "2019-04-27",
  "nums": [
    10,
    24,
    40,
    41,
    43,
    44
  ],
  "bonus": 17,
  "firstWinAmount": 3977927550,
  "firstWinners": 5,
  "totalSales": 80496424000,
  "prizes": {
    "first": {
      "amount": 3977927550,
      "winners": 5
    },
    "second": {
      "amount": 62546031,
      "winners": 53
    },
    "third": {
      "amount": 1700842,
      "winners": 1949
    },
    "fourth": {
      "amount": 50000,
      "winners": 104537
    },
    "fifth": {
      "amount": 5000,
      "winners": 1700369
    }
  },
  "methodCounts": {
    "auto": 3,
    "manual": 1,
    "mixed": 0
  },
  "topStores": [
    {
      "rank": 1,
      "name": "천하명당로또",
      "address": "서울 은평구 증산로9길 17",
      "method": "auto",
      "lat": 37.585667,
      "lng": 126.9086
    },
    {
      "rank": 1,
      "name": "이마트24 일산덕이점",
      "address": "경기 고양시 일산서구 미래로 164",
      "method": "mixed",
      "lat": 37.69311,
      "lng": 126.74687
    },
    {
      "rank": 1,
      "name": "럭키복권방",
      "address": "경기 수원시 영통구 센트럴타운로 15 아이플렉스104호",
      "method": "auto",
      "lat": 37.288116,
      "lng": 127.0574
    },
    {
      "rank": 1,
      "name": "꿀단지로또",
      "address": "경기 평택시 여술1길 100 평택스마트빌포레 101-B호",
      "method": "manual",
      "lat": 36.989857,
      "lng": 126.8414
    },
    {
      "rank": 1,
      "name": "왕대박복권",
      "address": "전북 전주시 덕진구 가련산로 17",
      "method": "auto",
      "lat": 35.841637,
      "lng": 127.11063
    }
  ]
}