{
  "round": 859,
  "date": "2019-05-18",
  "nums": [
    8,
    22,
    35,
    38,
    39,
    41
  ],
  "bonus": 24,
  "firstWinAmount": 1853927489,
  "firstWinners": 11,
  "totalSales": 80944223000,
  "prizes": {
    "first": {
      "amount": 1853927489,
      "winners": 11
    },
    "second": {
      "amount": 66644453,
      "winners": 51
    },
    "third": {
      "amount": 1793598,
      "winners": 1895
    },
    "fourth": {
      "amount": 50000,
      "winners": 97729
    },
    "fifth": {
      "amount": 5000,
      "winners": 1678945
    }
  },
  "methodCounts": {
    "auto": 9,
    "manual": 1,
    "mixed": 0
  },
  "topStores": [
    {
      "rank": 1,
      "name": "가판 창동역점",
      "address": "서울 도봉구 마들로11길 73 창동역문화마당앞",
      "method": "auto",
      "lat": 37.653225,
      "lng": 127.04908
    },
    {
      "rank": 1,
      "name": "토큰판매소",
      "address": "서울 송파구 바람드리길 62",
      "method": "mixed",
      "lat": 37.536663,
      "lng": 127.12238
    },
    {
      "rank": 1,
      "name": "잠실매점",
      "address": "서울 송파구 올림픽로 269 잠실역 8번출구 앞 가판",
      "method": "auto",
      "lat": 37.514446,
      "lng": 127.10071
    },
    {
      "rank": 1,
      "name": "다인로또",
      "address": "부산 기장군 정관로 830",
      "method": "manual",
      "lat": 35.32425,
      "lng": 129.20282
    },
    {
      "rank": 1,
      "name": "슈퍼복권나라",
      "address": "부산 부산진구 범일로142번길 31 1층 복권방",
      "method": "auto",
      "lat": 35.142838,
      "lng": 129.0611
    },
    {
      "rank": 1,
      "name": "대원슈퍼마켓",
      "address": "부산 수영구 수영로 524",
      "method": "auto",
      "lat": 35.152473,
      "lng": 129.112
    },
    {
      "rank": 1,
      "name": "마두역상행선 가판대",
      "address": "경기 고양시 일산동구 중앙로 1181 교보생명 일산사옥 마두역상행선가판대",
      "method": "auto",
      "lat": 37.65222,
      "lng": 126.77706
    },
    {
      "rank": 1,
      "name": "차부상회",
      "address": "경기 김포시 통진읍 조강로 50",
      "method": "auto",
      "lat": 37.690342,
      "lng": 126.60031
    },
    {
      "rank": 1,
      "name": "대박천국",
      "address": "경기 부천시 수도로 194 중앙블리체 108호",
      "method": "auto",
      "lat": 37.519245,
      "lng": 126.7866
    },
    {
      "rank": 1,
      "name": "백석상회",
      "address": "경기 양주시 백석읍 양주산성로 550",
      "method": "auto",
      "lat": 37.786922,
      "lng": 126.992905
    },
    {
      "rank": 1,
      "name": "동명슈퍼",
      "address": "강원 속초시 중앙로 205 GS25동명점",
      "method": "auto",
      "lat": 38.208916,
      "lng": 128.59273
    }
  ]
}