{
  "round": 863,
  "date": "2019-06-15",
  "nums": [
    16,
    21,
    28,
    35,
    39,
    43
  ],
  "bonus": 12,
  "firstWinAmount": 2853357322,
  "firstWinners": 7,
  "totalSales": 81288540000,
  "prizes": {
    "first": {
      "amount": 2853357322,
      "winners": 7
    },
    "second": {
      "amount": 52014327,
      "winners": 64
    },
    "third": {
      "amount": 1630224,
      "winners": 2042
    },
    "fourth": {
      "amount": 50000,
      "winners": 104949
    },
    "fifth": {
      "amount": 5000,
      "winners": 1753097
    }
  },
  "methodCounts": {
    "auto": 6,
    "manual": 1,
    "mixed": 0
  },
  "topStores": [
    {
      "rank": 1,
      "name": "신천대로점",
      "address": "서울 송파구 잠실동 175-12번지 CU편의점내",
      "method": "auto",
      "lat": 37.511417,
      "lng": 127.08049
    },
    {
      "rank": 1,
      "name": "드림복권방",
      "address": "인천 중구 인중로 97-1 삼익아파트",
      "method": "auto",
      "lat": 37.464256,
      "lng": 126.6324
    },
    {
      "rank": 1,
      "name": "대박로또판매점",
      "address": "경기 수원시 장안구 서부로 2129-1 태양공예가구",
      "method": "manual",
      "lat": 37.298717,
      "lng": 126.97125
    },
    {
      "rank": 1,
      "name": "복권전문점",
      "address": "경기 수원시 팔달구 매산로 17",
      "method": "auto",
      "lat": 37.2676,
      "lng": 127.00333
    },
    {
      "rank": 1,
      "name": "순살로복권",
      "address": "경기 의왕시 내손중앙로 43 서광상가 14호",
      "method": "auto",
      "lat": 37.38684,
      "lng": 126.98045
    },
    {
      "rank": 1,
      "name": "자수정슈퍼",
      "address": "전북 전주시 완산구 용머리로 152",
      "method": "auto",
      "lat": 35.805733,
      "lng": 127.12693
    },
    {
      "rank": 1,
      "name": "통영 동피랑점",
      "address": "경남 통영시 태평동 403 1층 CU편의점 내",
      "method": "auto",
      "lat": 34.846355,
      "lng": 128.42435
    }
  ]
}