{
  "round": 868,
  "date": "2019-07-20",
  "nums": [
    12,
    17,
    28,
    41,
    43,
    44
  ],
  "bonus": 25,
  "firstWinAmount": 3233804250,
  "firstWinners": 6,
  "totalSales": 80549078000,
  "prizes": {
    "first": {
      "amount": 3233804250,
      "winners": 6
    },
    "second": {
      "amount": 53013185,
      "winners": 61
    },
    "third": {
      "amount": 1502698,
      "winners": 2152
    },
    "fourth": {
      "amount": 50000,
      "winners": 109133
    },
    "fifth": {
      "amount": 5000,
      "winners": 1789491
    }
  },
  "methodCounts": {
    "auto": 3,
    "manual": 3,
    "mixed": 0
  },
  "topStores": [
    {
      "rank": 1,
      "name": "노다지복권방",
      "address": "서울 양천구 월정로 137",
      "method": "auto",
      "lat": 37.531162,
      "lng": 126.837425
    },
    {
      "rank": 1,
      "name": "행운복권방",
      "address": "서울 은평구 응암로11길 3 1층 3호",
      "method": "manual",
      "lat": 37.58823,
      "lng": 126.91619
    },
    {
      "rank": 1,
      "name": "묵동식품",
      "address": "서울 중랑구 동일로 919",
      "method": "manual",
      "lat": 37.612457,
      "lng": 127.07704
    },
    {
      "rank": 1,
      "name": "라이프마트",
      "address": "인천 중구 연안부두로53번길 36 5호",
      "method": "manual",
      "lat": 37.45236,
      "lng": 126.60402
    },
    {
      "rank": 1,
      "name": "운수대통",
      "address": "경기 수원시 권선구 매실로 73",
      "method": "auto",
      "lat": 37.269012,
      "lng": 126.95872
    },
    {
      "rank": 1,
      "name": "동남슈퍼",
      "address": "전북 부안군 번영로 173",
      "method": "auto",
      "lat": 35.727222,
      "lng": 126.73916
    }
  ]
}