{
  "round": 871,
  "date": "2019-08-10",
  "nums": [
    2,
    6,
    12,
    26,
    30,
    34
  ],
  "bonus": 38,
  "firstWinAmount": 2718071358,
  "firstWinners": 7,
  "totalSales": 79527502000,
  "prizes": {
    "first": {
      "amount": 2718071358,
      "winners": 7
    },
    "second": {
      "amount": 51984972,
      "winners": 61
    },
    "third": {
      "amount": 1421374,
      "winners": 2231
    },
    "fourth": {
      "amount": 50000,
      "winners": 108666
    },
    "fifth": {
      "amount": 5000,
      "winners": 1792357
    }
  },
  "methodCounts": {
    "auto": 6,
    "manual": 1,
    "mixed": 0
  },
  "topStores": [
    {
      "rank": 1,
      "name": "스파",
      "address": "서울 노원구 동일로 1493 상계주공아파트(10단지) 주공10단지종합상가111",
      "method": "auto",
      "lat": 37.66166,
      "lng": 127.05787
    },
    {
      "rank": 1,
      "name": "동행복권방",
      "address": "경기 의정부시 평화로 477",
      "method": "auto",
      "lat": 37.734566,
      "lng": 127.047585
    },
    {
      "rank": 1,
      "name": "흥양마중물",
      "address": "강원 원주시 치악로 2335 1층",
      "method": "auto",
      "lat": 37.38372,
      "lng": 127.97537
    },
    {
      "rank": 1,
      "name": "보은로또판매점",
      "address": "충북 보은군 보청대로 1892 식자재마트 앞 가판",
      "method": "manual",
      "lat": 36.489136,
      "lng": 127.71749
    },
    {
      "rank": 1,
      "name": "대박행운복권방",
      "address": "충남 아산시 온천대로 104 서해안 휴게소내 편의점",
      "method": "auto",
      "lat": 36.746223,
      "lng": 126.86672
    },
    {
      "rank": 1,
      "name": "탑로또",
      "address": "경남 거제시 거제중앙로 1787 서원탑훼밀리마트 서원탑훼밀리마트고현점 내(계룡온천옆)",
      "method": "auto",
      "lat": 34.878452,
      "lng": 128.62807
    },
    {
      "rank": 1,
      "name": "GS25(양산혜인점)",
      "address": "경남 양산시 평산동 31-5번지",
      "method": "auto",
      "lat": 35.384815,
      "lng": 129.15508
    }
  ]
}