{
  "round": 884,
  "date": "2019-11-09",
  "nums": [
    4,
    14,
    23,
    28,
    37,
    45
  ],
  "bonus": 17,
  "firstWinAmount": 1799077282,
  "firstWinners": 12,
  "totalSales": 86554613000,
  "prizes": {
    "first": {
      "amount": 1799077282,
      "winners": 12
    },
    "second": {
      "amount": 48623711,
      "winners": 74
    },
    "third": {
      "amount": 1630338,
      "winners": 2207
    },
    "fourth": {
      "amount": 50000,
      "winners": 108076
    },
    "fifth": {
      "amount": 5000,
      "winners": 1817654
    }
  },
  "methodCounts": {
    "auto": 10,
    "manual": 2,
    "mixed": 0
  },
  "topStores": [
    {
      "rank": 1,
      "name": "바이복",
      "address": "서울 강남구 일원로5길 19",
      "method": "manual",
      "lat": 37.491383,
      "lng": 127.082275
    },
    {
      "rank": 1,
      "name": "명당마트",
      "address": "서울 강서구 양천로 91",
      "method": "auto",
      "lat": 37.573605,
      "lng": 126.81405
    },
    {
      "rank": 1,
      "name": "인터넷 복권판매사이트",
      "address": "동행복권(dhlottery.co.kr)",
      "method": "manual",
      "lat": 37.482063,
      "lng": 127.015785
    },
    {
      "rank": 1,
      "name": "범일서적",
      "address": "부산 동구 진시장로 19-2 1층복권방",
      "method": "auto",
      "lat": 35.137386,
      "lng": 129.05898
    },
    {
      "rank": 1,
      "name": "노다지복권방",
      "address": "인천 미추홀구 한나루로 400 학익시장 외7필지125호",
      "method": "auto",
      "lat": 37.443375,
      "lng": 126.66496
    },
    {
      "rank": 1,
      "name": "드림",
      "address": "경기 수원시 권선구 정조로 615",
      "method": "auto",
      "lat": 37.263794,
      "lng": 127.01421
    },
    {
      "rank": 1,
      "name": "천하명당복권방",
      "address": "경기 수원시 팔달구 매산로 2",
      "method": "auto",
      "lat": 37.26661,
      "lng": 127.00185
    },
    {
      "rank": 1,
      "name": "드래곤복권",
      "address": "경기 용인시 기흥구 중부대로 814",
      "method": "auto",
      "lat": 37.25603,
      "lng": 127.143364
    },
    {
      "rank": 1,
      "name": "둔포로 로또방",
      "address": "충남 아산시 둔포로 92-12 세븐일레븐 편의점",
      "method": "auto",
      "lat": 36.924553,
      "lng": 127.04408
    },
    {
      "rank": 1,
      "name": "부자복권방",
      "address": "전북 군산시 구시장로 4",
      "method": "auto",
      "lat": 35.980473,
      "lng": 126.72023
    },
    {
      "rank": 1,
      "name": "도깨비방망이",
      "address": "전남 완도군 완도읍 장보고대로 220 도깨비방망이",
      "method": "auto",
      "lat": 34.31606,
      "lng": 126.7492
    },
    {
      "rank": 1,
      "name": "로또혁신점",
      "address": "경북 김천시 율곡동 777 cu로제니아",
      "method": "auto",
      "lat": 36.117584,
      "lng": 128.18199
    }
  ]
}