{
  "round": 889,
  "date": "2019-12-14",
  "nums": [
    3,
    13,
    29,
    38,
    39,
    42
  ],
  "bonus": 26,
  "firstWinAmount": 2108986950,
  "firstWinners": 10,
  "totalSales": 86734222000,
  "prizes": {
    "first": {
      "amount": 2108986950,
      "winners": 10
    },
    "second": {
      "amount": 58582971,
      "winners": 60
    },
    "third": {
      "amount": 1503413,
      "winners": 2338
    },
    "fourth": {
      "amount": 50000,
      "winners": 114198
    },
    "fifth": {
      "amount": 5000,
      "winners": 1907477
    }
  },
  "methodCounts": {
    "auto": 4,
    "manual": 6,
    "mixed": 0
  },
  "topStores": [
    {
      "rank": 1,
      "name": "흥부네박터졌네",
      "address": "인천 계양구 계산로111번길 8",
      "method": "auto",
      "lat": 37.538,
      "lng": 126.72464
    },
    {
      "rank": 1,
      "name": "씨스페이스(주안1-2)",
      "address": "인천 미추홀구 주안동(주안1동) 224-1",
      "method": "auto",
      "lat": 37.462917,
      "lng": 126.68
    },
    {
      "rank": 1,
      "name": "행운로또방",
      "address": "인천 부평구 십정동(십정1동) 322-19 1층",
      "method": "manual",
      "lat": 37.474007,
      "lng": 126.69574
    },
    {
      "rank": 1,
      "name": "행운복권방",
      "address": "경기 성남시 분당구 구미동 185-1번지 비즈파이코리아103호",
      "method": "auto",
      "lat": 37.339294,
      "lng": 127.10936
    },
    {
      "rank": 1,
      "name": "다니엘사",
      "address": "경기 안산시 단원구 원선1로 38 두산위브아파트 101호",
      "method": "manual",
      "lat": 37.326073,
      "lng": 126.80417
    },
    {
      "rank": 1,
      "name": "포유25다농점",
      "address": "경기 오산시 오산동 924-1번지 거성그린프라자114호",
      "method": "manual",
      "lat": 37.149662,
      "lng": 127.0754
    },
    {
      "rank": 1,
      "name": "태흥복권방",
      "address": "경기 의정부시 의정로 118",
      "method": "manual",
      "lat": 37.743553,
      "lng": 127.03504
    },
    {
      "rank": 1,
      "name": "이천대박로또",
      "address": "경기 이천시 경충대로 1830 가산삼거리",
      "method": "manual",
      "lat": 37.239483,
      "lng": 127.51252
    },
    {
      "rank": 1,
      "name": "로또명당해미점",
      "address": "충남 서산시 남문2로 108",
      "method": "manual",
      "lat": 36.71344,
      "lng": 126.54419
    },
    {
      "rank": 1,
      "name": "순천복권랜드",
      "address": "전남 순천시 신월큰길 26 세븐일레븐조례신월점",
      "method": "auto",
      "lat": 34.960903,
      "lng": 127.51891
    }
  ]
}