{
  "round": 897,
  "date": "2020-02-08",
  "nums": [
    6,
    7,
    12,
    22,
    26,
    36
  ],
  "bonus": 29,
  "firstWinAmount": 1619922520,
  "firstWinners": 13,
  "totalSales": 88231474000,
  "prizes": {
    "first": {
      "amount": 1619922520,
      "winners": 13
    },
    "second": {
      "amount": 56610196,
      "winners": 62
    },
    "third": {
      "amount": 1463650,
      "winners": 2398
    },
    "fourth": {
      "amount": 50000,
      "winners": 121076
    },
    "fifth": {
      "amount": 5000,
      "winners": 1996656
    }
  },
  "methodCounts": {
    "auto": 6,
    "manual": 7,
    "mixed": 0
  },
  "topStores": [
    {
      "rank": 1,
      "name": "로또판매CU논현SK점",
      "address": "서울 강남구 언주로 510 효림빌딩 지하 1층",
      "method": "manual",
      "lat": 37.51675,
      "lng": 127.040855
    },
    {
      "rank": 1,
      "name": "가판점",
      "address": "서울 서초구 효령로 283 가판",
      "method": "auto",
      "lat": 37.4851,
      "lng": 127.01497
    },
    {
      "rank": 1,
      "name": "인터넷 복권판매사이트",
      "address": "동행복권(dhlottery.co.kr)",
      "method": "manual",
      "lat": 37.482063,
      "lng": 127.015785
    },
    {
      "rank": 1,
      "name": "잠실매점",
      "address": "서울 송파구 올림픽로 269 잠실역 8번출구 앞 가판",
      "method": "manual",
      "lat": 37.514446,
      "lng": 127.10071
    },
    {
      "rank": 1,
      "name": "더드림로또",
      "address": "인천 미추홀구 관교동 15 1층 상점2호",
      "method": "auto",
      "lat": 37.441406,
      "lng": 126.70131
    },
    {
      "rank": 1,
      "name": "1등 복권",
      "address": "인천 부평구 부평대로87번길 3 1층",
      "method": "auto",
      "lat": 37.499165,
      "lng": 126.72182
    },
    {
      "rank": 1,
      "name": "노다지복권방",
      "address": "경기 김포시 중봉1로 81 제1층",
      "method": "auto",
      "lat": 37.6264,
      "lng": 126.70524
    },
    {
      "rank": 1,
      "name": "㈜현대택배권선영업소",
      "address": "경기 수원시 권선구 곡반정로 95-1 104호",
      "method": "auto",
      "lat": 37.23694,
      "lng": 127.03014
    },
    {
      "rank": 1,
      "name": "이지복권",
      "address": "경기 안산시 단원구 동산로 63 이마트 107호",
      "method": "manual",
      "lat": 37.31435,
      "lng": 126.79728
    },
    {
      "rank": 1,
      "name": "복권전당",
      "address": "강원 속초시 동해대로 4007 1층",
      "method": "manual",
      "lat": 38.189827,
      "lng": 128.59659
    },
    {
      "rank": 1,
      "name": "장락복권판매점",
      "address": "충북 제천시 청전대로 213 1층",
      "method": "manual",
      "lat": 37.152035,
      "lng": 128.22113
    },
    {
      "rank": 1,
      "name": "행운복권방 보생당건강원",
      "address": "전북 익산시 무왕로 1268",
      "method": "auto",
      "lat": 35.960304,
      "lng": 126.99727
    },
    {
      "rank": 1,
      "name": "조천청룡",
      "address": "제주 제주시 신북로 255",
      "method": "manual",
      "lat": 33.53805,
      "lng": 126.63927
    }
  ]
}