{
  "round": 900,
  "date": "2020-02-29",
  "nums": [
    7,
    13,
    16,
    18,
    35,
    38
  ],
  "bonus": 14,
  "firstWinAmount": 3349851375,
  "firstWinners": 6,
  "totalSales": 83639372000,
  "prizes": {
    "first": {
      "amount": 3349851375,
      "winners": 6
    },
    "second": {
      "amount": 65683361,
      "winners": 51
    },
    "third": {
      "amount": 1404550,
      "winners": 2385
    },
    "fourth": {
      "amount": 50000,
      "winners": 113132
    },
    "fifth": {
      "amount": 5000,
      "winners": 1872855
    }
  },
  "methodCounts": {
    "auto": 5,
    "manual": 1,
    "mixed": 0
  },
  "topStores": [
    {
      "rank": 1,
      "name": "행운복권방",
      "address": "서울 도봉구 노해로63길 79 우림빌딩106",
      "method": "auto",
      "lat": 37.653114,
      "lng": 127.04623
    },
    {
      "rank": 1,
      "name": "로또복권판매소",
      "address": "서울 마포구 마포대로 44 진도빌딩앞",
      "method": "auto",
      "lat": 37.539944,
      "lng": 126.94703
    },
    {
      "rank": 1,
      "name": "종합가판제141호",
      "address": "서울 중구 퇴계로 447 황학 아크로타워",
      "method": "auto",
      "lat": 37.566044,
      "lng": 127.02172
    },
    {
      "rank": 1,
      "name": "한국인세계대박복권",
      "address": "인천 연수구 한나루로197번길 34",
      "method": "auto",
      "lat": 37.42769,
      "lng": 126.65522
    },
    {
      "rank": 1,
      "name": "남문시장",
      "address": "경기 수원시 팔달구 수원천로255번길 6 영동시장 영동시장 101호",
      "method": "manual",
      "lat": 37.277145,
      "lng": 127.01858
    },
    {
      "rank": 1,
      "name": "알리바이(나주점)",
      "address": "전남 나주시 나주로 142 알리바이",
      "method": "auto",
      "lat": 35.031338,
      "lng": 126.71719
    }
  ]
}