{
  "round": 908,
  "date": "2020-04-25",
  "nums": [
    3,
    16,
    21,
    22,
    23,
    44
  ],
  "bonus": 30,
  "firstWinAmount": 2834856141,
  "firstWinners": 8,
  "totalSales": 89923601000,
  "prizes": {
    "first": {
      "amount": 2834856141,
      "winners": 8
    },
    "second": {
      "amount": 66312425,
      "winners": 57
    },
    "third": {
      "amount": 1749102,
      "winners": 2161
    },
    "fourth": {
      "amount": 50000,
      "winners": 108610
    },
    "fifth": {
      "amount": 5000,
      "winners": 1858567
    }
  },
  "methodCounts": {
    "auto": 6,
    "manual": 2,
    "mixed": 0
  },
  "topStores": [
    {
      "rank": 1,
      "name": "자양사거리가로매점",
      "address": "서울 광진구 자양로 95",
      "method": "auto",
      "lat": 37.536224,
      "lng": 127.0832
    },
    {
      "rank": 1,
      "name": "오케이상사",
      "address": "서울 서초구 신반포로 176 센트럴시티내100호매점",
      "method": "auto",
      "lat": 37.504353,
      "lng": 127.00359
    },
    {
      "rank": 1,
      "name": "씨스페이스(죽림점)",
      "address": "부산 강서구 죽림동 590번지",
      "method": "auto",
      "lat": 35.196316,
      "lng": 128.90057
    },
    {
      "rank": 1,
      "name": "다인로또",
      "address": "부산 기장군 정관로 830",
      "method": "manual",
      "lat": 35.32425,
      "lng": 129.20282
    },
    {
      "rank": 1,
      "name": "터서점",
      "address": "부산 동래구 아시아드대로 227",
      "method": "auto",
      "lat": 35.204365,
      "lng": 129.06686
    },
    {
      "rank": 1,
      "name": "콘테인복권판매점",
      "address": "충남 천안시 동남구 청수11로 13-11 건물 뒤편 콘테인커피숍 내",
      "method": "manual",
      "lat": 36.783344,
      "lng": 127.15366
    },
    {
      "rank": 1,
      "name": "영암로또복권",
      "address": "전남 영암군 동문로 8 영암버스터미널 1층",
      "method": "auto",
      "lat": 34.79684,
      "lng": 126.70295
    },
    {
      "rank": 1,
      "name": "은정슈퍼",
      "address": "경남 창원시 성산구 원이대로883번길 2 은정상가101호 GS편의점",
      "method": "auto",
      "lat": 35.207897,
      "lng": 128.69461
    }
  ]
}