{
  "round": 909,
  "date": "2020-05-02",
  "nums": [
    7,
    24,
    29,
    30,
    34,
    35
  ],
  "bonus": 33,
  "firstWinAmount": 2021062875,
  "firstWinners": 11,
  "totalSales": 89543261000,
  "prizes": {
    "first": {
      "amount": 2021062875,
      "winners": 11
    },
    "second": {
      "amount": 58814000,
      "winners": 63
    },
    "third": {
      "amount": 1599863,
      "winners": 2316
    },
    "fourth": {
      "amount": 50000,
      "winners": 111558
    },
    "fifth": {
      "amount": 5000,
      "winners": 1910295
    }
  },
  "methodCounts": {
    "auto": 4,
    "manual": 7,
    "mixed": 0
  },
  "topStores": [
    {
      "rank": 1,
      "name": "GS25(건대제일점)",
      "address": "서울 광진구 화양동 49-1번지",
      "method": "manual",
      "lat": 37.54183,
      "lng": 127.06653
    },
    {
      "rank": 1,
      "name": "GS25(건대제일점)",
      "address": "서울 광진구 화양동 49-1번지",
      "method": "manual",
      "lat": 37.54183,
      "lng": 127.06653
    },
    {
      "rank": 1,
      "name": "유성복권",
      "address": "서울 송파구 가락동 18-15번지 1층",
      "method": "manual",
      "lat": 37.501682,
      "lng": 127.12469
    },
    {
      "rank": 1,
      "name": "복슈퍼",
      "address": "인천 계양구 계산로108번길 4,(계산동)",
      "method": "manual",
      "lat": 37.537193,
      "lng": 126.72408
    },
    {
      "rank": 1,
      "name": "바로코사",
      "address": "경기 안산시 상록구 네고지2길 30",
      "method": "manual",
      "lat": 37.295517,
      "lng": 126.85124
    },
    {
      "rank": 1,
      "name": "빵!터진!로또복권판매점",
      "address": "경기 안산시 상록구 본오로 133 우성아파트 상가동 우성아파트상가 114호",
      "method": "manual",
      "lat": 37.2973,
      "lng": 126.86652
    },
    {
      "rank": 1,
      "name": "샘내 편의점",
      "address": "경기 양주시 평화로 1279",
      "method": "manual",
      "lat": 37.805496,
      "lng": 127.045364
    },
    {
      "rank": 1,
      "name": "복권판매점",
      "address": "경기 파주시 운정1길 18",
      "method": "auto",
      "lat": 37.72453,
      "lng": 126.76944
    },
    {
      "rank": 1,
      "name": "제일복권",
      "address": "강원 춘천시 중앙로 45 스탠다드차타드은행앞 가판",
      "method": "auto",
      "lat": 37.880833,
      "lng": 127.72832
    },
    {
      "rank": 1,
      "name": "노다지복권방",
      "address": "충남 천안시 동남구 원성천1길 151 2호",
      "method": "auto",
      "lat": 36.808594,
      "lng": 127.1619
    },
    {
      "rank": 1,
      "name": "로또복권판매도통점",
      "address": "전북 남원시 용성로 232,(도통동)",
      "method": "auto",
      "lat": 35.41778,
      "lng": 127.39722
    }
  ]
}