{
  "round": 912,
  "date": "2020-05-23",
  "nums": [
    5,
    8,
    18,
    21,
    22,
    38
  ],
  "bonus": 10,
  "firstWinAmount": 1493500581,
  "firstWinners": 14,
  "totalSales": 88599155000,
  "prizes": {
    "first": {
      "amount": 1493500581,
      "winners": 14
    },
    "second": {
      "amount": 49783353,
      "winners": 70
    },
    "third": {
      "amount": 1368212,
      "winners": 2547
    },
    "fourth": {
      "amount": 50000,
      "winners": 125332
    },
    "fifth": {
      "amount": 5000,
      "winners": 2030860
    }
  },
  "methodCounts": {
    "auto": 7,
    "manual": 5,
    "mixed": 0
  },
  "topStores": [
    {
      "rank": 1,
      "name": "가로판매소",
      "address": "서울 구로구 새말로 117-24 (신도림역2번출구)(구로동)",
      "method": "manual",
      "lat": 37.50696,
      "lng": 126.8903
    },
    {
      "rank": 1,
      "name": "씨스페이스(동작점)",
      "address": "서울 동작구 신대방동 690-20",
      "method": "manual",
      "lat": 37.487347,
      "lng": 126.90954
    },
    {
      "rank": 1,
      "name": "가로판매점",
      "address": "서울 용산구 원효로 166",
      "method": "auto",
      "lat": 37.53501,
      "lng": 126.961555
    },
    {
      "rank": 1,
      "name": "뉴빅마트",
      "address": "부산 기장군 정관중앙로 48 106호",
      "method": "mixed",
      "lat": 35.321114,
      "lng": 129.17929
    },
    {
      "rank": 1,
      "name": "토토복권",
      "address": "대구 서구 달서로12길 9",
      "method": "mixed",
      "lat": 35.86758,
      "lng": 128.57208
    },
    {
      "rank": 1,
      "name": "행복세상",
      "address": "대전 대덕구 중리로 52",
      "method": "auto",
      "lat": 36.363663,
      "lng": 127.42535
    },
    {
      "rank": 1,
      "name": "노다지복권방",
      "address": "경기 광명시 범안로 1043 (하안동, 원촌빌딩 1층)",
      "method": "manual",
      "lat": 37.462326,
      "lng": 126.878654
    },
    {
      "rank": 1,
      "name": "태양정보통신",
      "address": "경기 광주시 고불로 56 상가1층",
      "method": "auto",
      "lat": 37.39323,
      "lng": 127.23178
    },
    {
      "rank": 1,
      "name": "(I.A) 로또마트",
      "address": "경기 안산시 단원구 신길로 9-4",
      "method": "auto",
      "lat": 37.33149,
      "lng": 126.78637
    },
    {
      "rank": 1,
      "name": "복권가판",
      "address": "강원 춘천시 시청길 32 1층 이마트 24",
      "method": "auto",
      "lat": 37.88103,
      "lng": 127.73115
    },
    {
      "rank": 1,
      "name": "복권왕국",
      "address": "충북 제천시 풍양로 108 중앙시장상가 지하145",
      "method": "auto",
      "lat": 37.136654,
      "lng": 128.2113
    },
    {
      "rank": 1,
      "name": "대박마트복권방",
      "address": "충남 아산시 음봉로 844 행복한순복음교회 태화상가1층103호",
      "method": "manual",
      "lat": 36.826508,
      "lng": 127.09927
    },
    {
      "rank": 1,
      "name": "나눔로또 씨유거제사등대로점",
      "address": "경남 거제시 거제대로 5460 CU편의점",
      "method": "auto",
      "lat": 34.90891,
      "lng": 128.54767
    },
    {
      "rank": 1,
      "name": "영건",
      "address": "경남 양산시 새실로 159 나래메트로시티 A동113호 복권판매점",
      "method": "manual",
      "lat": 35.3149,
      "lng": 129.00433
    }
  ]
}