{
  "round": 920,
  "date": "2020-07-18",
  "nums": [
    2,
    3,
    26,
    33,
    34,
    43
  ],
  "bonus": 29,
  "firstWinAmount": 3120260197,
  "firstWinners": 7,
  "totalSales": 89805177000,
  "prizes": {
    "first": {
      "amount": 3120260197,
      "winners": 7
    },
    "second": {
      "amount": 68684973,
      "winners": 53
    },
    "third": {
      "amount": 1550385,
      "winners": 2348
    },
    "fourth": {
      "amount": 50000,
      "winners": 117181
    },
    "fifth": {
      "amount": 5000,
      "winners": 1984222
    }
  },
  "methodCounts": {
    "auto": 4,
    "manual": 3,
    "mixed": 0
  },
  "topStores": [
    {
      "rank": 1,
      "name": "천하명당초량점",
      "address": "부산 동구 중앙대로221번길 3",
      "method": "auto",
      "lat": 35.116898,
      "lng": 129.04013
    },
    {
      "rank": 1,
      "name": "싱글벙글 6/45",
      "address": "부산 연제구 중앙대로 1041 좌측 싱글벙글복권방",
      "method": "auto",
      "lat": 35.181576,
      "lng": 129.07777
    },
    {
      "rank": 1,
      "name": "스카이편의점",
      "address": "경기 안양시 만안구 박달로 527",
      "method": "auto",
      "lat": 37.40275,
      "lng": 126.91124
    },
    {
      "rank": 1,
      "name": "열두보석복권방",
      "address": "경기 용인시 기흥구 구갈로 74 구갈스포츠센타 구갈스포츠센터106호",
      "method": "manual",
      "lat": 37.281136,
      "lng": 127.11181
    },
    {
      "rank": 1,
      "name": "로또명당해미점",
      "address": "충남 서산시 남문2로 108",
      "method": "auto",
      "lat": 36.71344,
      "lng": 126.54419
    },
    {
      "rank": 1,
      "name": "행복 복권판매점",
      "address": "경남 양산시 반회서6길 9 7호",
      "method": "manual",
      "lat": 35.41447,
      "lng": 129.05927
    },
    {
      "rank": 1,
      "name": "행복 복권판매점",
      "address": "경남 양산시 반회서6길 9 7호",
      "method": "manual",
      "lat": 35.41447,
      "lng": 129.05927
    }
  ]
}