{
  "round": 933,
  "date": "2020-10-17",
  "nums": [
    23,
    27,
    29,
    31,
    36,
    45
  ],
  "bonus": 37,
  "firstWinAmount": 2927797079,
  "firstWinners": 8,
  "totalSales": 93484851000,
  "prizes": {
    "first": {
      "amount": 2927797079,
      "winners": 8
    },
    "second": {
      "amount": 61963960,
      "winners": 63
    },
    "third": {
      "amount": 1762407,
      "winners": 2215
    },
    "fourth": {
      "amount": 50000,
      "winners": 114043
    },
    "fifth": {
      "amount": 5000,
      "winners": 1962088
    }
  },
  "methodCounts": {
    "auto": 8,
    "manual": 0,
    "mixed": 0
  },
  "topStores": [
    {
      "rank": 1,
      "name": "로또카페",
      "address": "서울 강서구 강서로74길 3 1층 6호",
      "method": "auto",
      "lat": 37.567844,
      "lng": 126.8415
    },
    {
      "rank": 1,
      "name": "대화식품",
      "address": "서울 금천구 가산로 53 3호",
      "method": "auto",
      "lat": 37.471157,
      "lng": 126.896904
    },
    {
      "rank": 1,
      "name": "명신사",
      "address": "서울 마포구 월드컵로 97",
      "method": "auto",
      "lat": 37.55725,
      "lng": 126.90864
    },
    {
      "rank": 1,
      "name": "복권천국(성서점)",
      "address": "대구 달서구 성서로 377",
      "method": "auto",
      "lat": 35.851086,
      "lng": 128.50685
    },
    {
      "rank": 1,
      "name": "버스매표소 복권판매소",
      "address": "인천 중구 우현로 69 중앙로지하상가 163호",
      "method": "auto",
      "lat": 37.47554,
      "lng": 126.631294
    },
    {
      "rank": 1,
      "name": "또또와복권방",
      "address": "세종 나성북로 30 퍼스트원 어반아트리움 189호",
      "method": "auto",
      "lat": 36.489307,
      "lng": 127.26067
    },
    {
      "rank": 1,
      "name": "현리행운복권방",
      "address": "경기 가평군 조종희망로 14 1층",
      "method": "auto",
      "lat": 37.818184,
      "lng": 127.35024
    },
    {
      "rank": 1,
      "name": "충청복권전문점",
      "address": "충남 천안시 서북구 성환2로 108",
      "method": "auto",
      "lat": 36.91694,
      "lng": 127.132835
    }
  ]
}