{
  "round": 937,
  "date": "2020-11-14",
  "nums": [
    2,
    10,
    13,
    22,
    29,
    40
  ],
  "bonus": 26,
  "firstWinAmount": 2058420819,
  "firstWinners": 11,
  "totalSales": 93720454000,
  "prizes": {
    "first": {
      "amount": 2058420819,
      "winners": 11
    },
    "second": {
      "amount": 66206518,
      "winners": 57
    },
    "third": {
      "amount": 1521683,
      "winners": 2480
    },
    "fourth": {
      "amount": 50000,
      "winners": 124141
    },
    "fifth": {
      "amount": 5000,
      "winners": 2092601
    }
  },
  "methodCounts": {
    "auto": 9,
    "manual": 2,
    "mixed": 0
  },
  "topStores": [
    {
      "rank": 1,
      "name": "잠실매점",
      "address": "서울 송파구 올림픽로 269 잠실역 8번출구 앞 가판",
      "method": "auto",
      "lat": 37.514446,
      "lng": 127.10071
    },
    {
      "rank": 1,
      "name": "대박복권방",
      "address": "서울 양천구 오목로 233 1층1호",
      "method": "auto",
      "lat": 37.52613,
      "lng": 126.863304
    },
    {
      "rank": 1,
      "name": "영일식품",
      "address": "서울 영등포구 당산로32길 10",
      "method": "manual",
      "lat": 37.526226,
      "lng": 126.8978
    },
    {
      "rank": 1,
      "name": "우정식품",
      "address": "부산 동래구 온천장로 39",
      "method": "auto",
      "lat": 35.21585,
      "lng": 129.07948
    },
    {
      "rank": 1,
      "name": "황금돼지로또",
      "address": "부산 수영구 광남로48번길 12 남천동",
      "method": "auto",
      "lat": 35.146393,
      "lng": 129.11247
    },
    {
      "rank": 1,
      "name": "버스매표소",
      "address": "인천 부평구 부평대로 3 가판",
      "method": "manual",
      "lat": 37.49181,
      "lng": 126.722725
    },
    {
      "rank": 1,
      "name": "원흥로또 앤 픽미아이스",
      "address": "경기 고양시 덕양구 삼송로 12 102호",
      "method": "auto",
      "lat": 37.64967,
      "lng": 126.875336
    },
    {
      "rank": 1,
      "name": "로또복권방",
      "address": "경기 군포시 산본로323번길 16-6 신명타워 신명빌딩1층1005호",
      "method": "auto",
      "lat": 37.359245,
      "lng": 126.93236
    },
    {
      "rank": 1,
      "name": "GS25(수원매탄점)",
      "address": "경기 수원시 영통구  인계로 239 성일프라자117호",
      "method": "auto",
      "lat": 37.26531,
      "lng": 127.044044
    },
    {
      "rank": 1,
      "name": "777천하명당",
      "address": "충남 서천군 충절로 54",
      "method": "auto",
      "lat": 36.074856,
      "lng": 126.68902
    },
    {
      "rank": 1,
      "name": "대산슈퍼",
      "address": "충남 천안시 동남구 복구정3길 1",
      "method": "auto",
      "lat": 36.76989,
      "lng": 127.250206
    }
  ]
}