{
  "round": 947,
  "date": "2021-01-23",
  "nums": [
    3,
    8,
    17,
    20,
    27,
    35
  ],
  "bonus": 26,
  "firstWinAmount": 1275855750,
  "firstWinners": 18,
  "totalSales": 99449916000,
  "prizes": {
    "first": {
      "amount": 1275855750,
      "winners": 18
    },
    "second": {
      "amount": 65992539,
      "winners": 58
    },
    "third": {
      "amount": 1202881,
      "winners": 3182
    },
    "fourth": {
      "amount": 50000,
      "winners": 146908
    },
    "fifth": {
      "amount": 5000,
      "winners": 2351804
    }
  },
  "methodCounts": {
    "auto": 14,
    "manual": 2,
    "mixed": 0
  },
  "topStores": [
    {
      "rank": 1,
      "name": "다담",
      "address": "서울 동대문구 장한로18길 50",
      "method": "auto",
      "lat": 37.567554,
      "lng": 127.07169
    },
    {
      "rank": 1,
      "name": "버스판매소",
      "address": "서울 영등포구 영중로 2 1층(영등포동3가)",
      "method": "auto",
      "lat": 37.516743,
      "lng": 126.906746
    },
    {
      "rank": 1,
      "name": "양광마트",
      "address": "서울 은평구 응암로 173-1",
      "method": "mixed",
      "lat": 37.587593,
      "lng": 126.91639
    },
    {
      "rank": 1,
      "name": "복권명당",
      "address": "대구 수성구 들안로 243",
      "method": "manual",
      "lat": 35.851864,
      "lng": 128.6167
    },
    {
      "rank": 1,
      "name": "운수대통",
      "address": "광주 광산구 어등대로 581-1 1층 운수대통",
      "method": "auto",
      "lat": 35.15126,
      "lng": 126.786285
    },
    {
      "rank": 1,
      "name": "복권마트",
      "address": "광주 북구 북문대로 89 벽산메가시티상가 101동 116호",
      "method": "auto",
      "lat": 35.176758,
      "lng": 126.87724
    },
    {
      "rank": 1,
      "name": "복권나라",
      "address": "대전 대덕구 신탄진동로 1",
      "method": "auto",
      "lat": 36.447586,
      "lng": 127.4299
    },
    {
      "rank": 1,
      "name": "버스표판매소",
      "address": "경기 고양시 덕양구 화신로 76 샘터마을1단지아파트 971번지선",
      "method": "auto",
      "lat": 37.619034,
      "lng": 126.840454
    },
    {
      "rank": 1,
      "name": "일산복권",
      "address": "경기 고양시 일산동구 무궁화로 31-16 남정시티프라자8차 103호",
      "method": "auto",
      "lat": 37.66349,
      "lng": 126.76746
    },
    {
      "rank": 1,
      "name": "로또또",
      "address": "경기 김포시 봉수대로 1704 102호",
      "method": "auto",
      "lat": 37.62097,
      "lng": 126.63304
    },
    {
      "rank": 1,
      "name": "1등복권방",
      "address": "경기 오산시 수청로 201",
      "method": "auto",
      "lat": 37.17634,
      "lng": 127.04483
    },
    {
      "rank": 1,
      "name": "로또휴게실",
      "address": "경기 용인시 기흥구 용구대로 1885",
      "method": "manual",
      "lat": 37.256386,
      "lng": 127.10432
    },
    {
      "rank": 1,
      "name": "대성기획",
      "address": "경기 용인시 기흥구 구성로 75-1",
      "method": "auto",
      "lat": 37.29493,
      "lng": 127.1179
    },
    {
      "rank": 1,
      "name": "행운복권",
      "address": "충북 제천시 명륜로 67 1층",
      "method": "auto",
      "lat": 37.142334,
      "lng": 128.20863
    },
    {
      "rank": 1,
      "name": "위드미청주예체로점",
      "address": "충북 청주시 서원구 예체로19번길 3",
      "method": "auto",
      "lat": 36.62776,
      "lng": 127.46859
    },
    {
      "rank": 1,
      "name": "썬마트",
      "address": "충북 청주시 흥덕구 진재로23번길 25",
      "method": "auto",
      "lat": 36.632607,
      "lng": 127.42811
    },
    {
      "rank": 1,
      "name": "나눔로또",
      "address": "충남 논산시 중앙로 201",
      "method": "auto",
      "lat": 36.18615,
      "lng": 127.1027
    },
    {
      "rank": 1,
      "name": "안계 나눔로또",
      "address": "경북 의성군 안계시장길 43",
      "method": "mixed",
      "lat": 36.38517,
      "lng": 128.4369
    }
  ]
}