{
  "round": 955,
  "date": "2021-03-20",
  "nums": [
    4,
    9,
    23,
    26,
    29,
    33
  ],
  "bonus": 8,
  "firstWinAmount": 2023170188,
  "firstWinners": 12,
  "totalSales": 99784736000,
  "prizes": {
    "first": {
      "amount": 2023170188,
      "winners": 12
    },
    "second": {
      "amount": 56990710,
      "winners": 71
    },
    "third": {
      "amount": 1526921,
      "winners": 2650
    },
    "fourth": {
      "amount": 50000,
      "winners": 130744
    },
    "fifth": {
      "amount": 5000,
      "winners": 2196889
    }
  },
  "methodCounts": {
    "auto": 9,
    "manual": 2,
    "mixed": 0
  },
  "topStores": [
    {
      "rank": 1,
      "name": "로또카페",
      "address": "서울 강서구 강서로74길 3 1층 6호",
      "method": "manual",
      "lat": 37.567844,
      "lng": 126.8415
    },
    {
      "rank": 1,
      "name": "부자랑",
      "address": "서울 성동구 둘레15길 23",
      "method": "auto",
      "lat": 37.53688,
      "lng": 127.05523
    },
    {
      "rank": 1,
      "name": "잠실나루역2번출구",
      "address": "서울 송파구 올림픽로37길 109 잠실나루역 2번출구",
      "method": "auto",
      "lat": 37.522404,
      "lng": 127.104744
    },
    {
      "rank": 1,
      "name": "셀프카메라",
      "address": "부산 부산진구 가야대로443번길 30",
      "method": "auto",
      "lat": 35.154446,
      "lng": 129.02167
    },
    {
      "rank": 1,
      "name": "무지개상점",
      "address": "부산 해운대구 좌동로91번길 45",
      "method": "auto",
      "lat": 35.17413,
      "lng": 129.1736
    },
    {
      "rank": 1,
      "name": "동수슈퍼문구복권",
      "address": "인천 부평구 동수로 101",
      "method": "auto",
      "lat": 37.485455,
      "lng": 126.72979
    },
    {
      "rank": 1,
      "name": "로또기업",
      "address": "대전 동구 동서대로 1684 복합터미널 건너편",
      "method": "mixed",
      "lat": 36.348797,
      "lng": 127.43712
    },
    {
      "rank": 1,
      "name": "풍전슈퍼",
      "address": "경기 부천시 조마루로 428,(원미동)",
      "method": "auto",
      "lat": 37.49708,
      "lng": 126.79113
    },
    {
      "rank": 1,
      "name": "안성휴게소 복권판매점(부산방향)",
      "address": "경기 안성시 경부고속도로 365 안성휴게소 하행선 내",
      "method": "auto",
      "lat": 37.013092,
      "lng": 127.145065
    },
    {
      "rank": 1,
      "name": "로또.토토.블루베리",
      "address": "경기 평택시 안현로서6길 7 대건빌딩 105호",
      "method": "manual",
      "lat": 36.98331,
      "lng": 126.928055
    },
    {
      "rank": 1,
      "name": "이마트24 마산만복점",
      "address": "경남 창원시 마산회원구 합성옛길 152",
      "method": "auto",
      "lat": 35.238274,
      "lng": 128.5839
    },
    {
      "rank": 1,
      "name": "죽림프라자",
      "address": "경남 통영시 신죽1길 90 죽림프라자 1층 105호 CU편의점",
      "method": "auto",
      "lat": 34.87458,
      "lng": 128.41788
    }
  ]
}