{
  "round": 966,
  "date": "2021-06-05",
  "nums": [
    1,
    21,
    25,
    29,
    34,
    37
  ],
  "bonus": 36,
  "firstWinAmount": 2411303513,
  "firstWinners": 10,
  "totalSales": 95640447000,
  "prizes": {
    "first": {
      "amount": 2411303513,
      "winners": 10
    },
    "second": {
      "amount": 80376784,
      "winners": 50
    },
    "third": {
      "amount": 1708691,
      "winners": 2352
    },
    "fourth": {
      "amount": 50000,
      "winners": 115370
    },
    "fifth": {
      "amount": 5000,
      "winners": 1980202
    }
  },
  "methodCounts": {
    "auto": 9,
    "manual": 1,
    "mixed": 0
  },
  "topStores": [
    {
      "rank": 1,
      "name": "다모아복권",
      "address": "서울 구로구 경인로19길 4",
      "method": "auto",
      "lat": 37.495926,
      "lng": 126.84278
    },
    {
      "rank": 1,
      "name": "인터넷 복권판매사이트",
      "address": "동행복권(dhlottery.co.kr)",
      "method": "manual",
      "lat": 37.482063,
      "lng": 127.015785
    },
    {
      "rank": 1,
      "name": "터서점",
      "address": "부산 동래구 아시아드대로 227",
      "method": "auto",
      "lat": 35.204365,
      "lng": 129.06686
    },
    {
      "rank": 1,
      "name": "GS25(서면일번가점)",
      "address": "부산 부산진구  신천대로62번길 34 동흥빌딩",
      "method": "auto",
      "lat": 35.15229,
      "lng": 129.05861
    },
    {
      "rank": 1,
      "name": "호선상회",
      "address": "부산 사하구 동매로 167",
      "method": "auto",
      "lat": 35.101536,
      "lng": 128.9764
    },
    {
      "rank": 1,
      "name": "짱25시",
      "address": "대구 수성구 달구벌대로 2610,(만촌동)",
      "method": "auto",
      "lat": 35.858044,
      "lng": 128.64769
    },
    {
      "rank": 1,
      "name": "명동슈퍼",
      "address": "경기 광명시 디지털로 17 1동 107호(철산동, (주)티오티비 오렌지타운)",
      "method": "auto",
      "lat": 37.474014,
      "lng": 126.86936
    },
    {
      "rank": 1,
      "name": "나눔로또 판교역점",
      "address": "경기 성남시 분당구 대왕판교로606번길 39 107호",
      "method": "auto",
      "lat": 37.396473,
      "lng": 127.11148
    },
    {
      "rank": 1,
      "name": "대박로또판매점",
      "address": "경기 수원시 장안구 서부로 2129-1 태양공예가구",
      "method": "auto",
      "lat": 37.298717,
      "lng": 126.97125
    },
    {
      "rank": 1,
      "name": "왕대박찬스",
      "address": "제주 서귀포시 중앙로 64 랑경플라워",
      "method": "auto",
      "lat": 33.250248,
      "lng": 126.56171
    }
  ]
}