{
  "round": 972,
  "date": "2021-07-17",
  "nums": [
    3,
    6,
    17,
    23,
    37,
    39
  ],
  "bonus": 26,
  "firstWinAmount": 1124886244,
  "firstWinners": 20,
  "totalSales": 93916813000,
  "prizes": {
    "first": {
      "amount": 1124886244,
      "winners": 20
    },
    "second": {
      "amount": 46870261,
      "winners": 80
    },
    "third": {
      "amount": 1458997,
      "winners": 2570
    },
    "fourth": {
      "amount": 50000,
      "winners": 126989
    },
    "fifth": {
      "amount": 5000,
      "winners": 2122398
    }
  },
  "methodCounts": {
    "auto": 16,
    "manual": 4,
    "mixed": 0
  },
  "topStores": [
    {
      "rank": 1,
      "name": "바이복",
      "address": "서울 강남구 일원로5길 19",
      "method": "auto",
      "lat": 37.491383,
      "lng": 127.082275
    },
    {
      "rank": 1,
      "name": "잠실매점",
      "address": "서울 송파구 올림픽로 269 잠실역 8번출구 앞 가판",
      "method": "auto",
      "lat": 37.514446,
      "lng": 127.10071
    },
    {
      "rank": 1,
      "name": "희망복권판매점",
      "address": "인천 서구 보듬5로 5 오덕프라자 104호일부",
      "method": "manual",
      "lat": 37.594208,
      "lng": 126.61228
    },
    {
      "rank": 1,
      "name": "베스토아(용전2호)",
      "address": "대전 동구 동서대로 1689 복합터미널서관1층59호",
      "method": "auto",
      "lat": 36.35038,
      "lng": 127.43664
    },
    {
      "rank": 1,
      "name": "석교복권천국",
      "address": "대전 중구 대종로 212-1,(석교동)",
      "method": "auto",
      "lat": 36.309,
      "lng": 127.443855
    },
    {
      "rank": 1,
      "name": "CU(군포덕산점)",
      "address": "경기 군포시  고산로250번길 32 덕산아파트 덕산아파트상가 1층",
      "method": "auto",
      "lat": 37.348972,
      "lng": 126.94522
    },
    {
      "rank": 1,
      "name": "대박로또판매점",
      "address": "경기 수원시 장안구 서부로 2129-1 태양공예가구",
      "method": "auto",
      "lat": 37.298717,
      "lng": 126.97125
    },
    {
      "rank": 1,
      "name": "금도끼복권방",
      "address": "경기 양평군 용문로 812 1층",
      "method": "manual",
      "lat": 37.50729,
      "lng": 127.63166
    },
    {
      "rank": 1,
      "name": "노다지복권방",
      "address": "경기 용인시 처인구 금령로 130",
      "method": "auto",
      "lat": 37.23509,
      "lng": 127.2105
    },
    {
      "rank": 1,
      "name": "우리로또",
      "address": "충남 서산시 충의로 1231 화천슈퍼 이마트24편의점",
      "method": "auto",
      "lat": 36.877323,
      "lng": 126.439514
    },
    {
      "rank": 1,
      "name": "153로또판매점",
      "address": "충남 아산시 배방로 57-23",
      "method": "manual",
      "lat": 36.772297,
      "lng": 127.05734
    },
    {
      "rank": 1,
      "name": "드림로또",
      "address": "전북 전주시 덕진구 소리로 198",
      "method": "auto",
      "lat": 35.85812,
      "lng": 127.15354
    },
    {
      "rank": 1,
      "name": "미래유통",
      "address": "전남 목포시 영산로 623",
      "method": "auto",
      "lat": 34.82103,
      "lng": 126.42085
    },
    {
      "rank": 1,
      "name": "금당복권방",
      "address": "전남 순천시 조례못등길 97",
      "method": "auto",
      "lat": 34.9494,
      "lng": 127.5287
    },
    {
      "rank": 1,
      "name": "GMART",
      "address": "경북 구미시 구미중앙로 57-3",
      "method": "auto",
      "lat": 36.130028,
      "lng": 128.32906
    },
    {
      "rank": 1,
      "name": "행복복권판매점",
      "address": "경남 사천시 조동길 49-15 101,102호",
      "method": "auto",
      "lat": 35.060253,
      "lng": 128.06752
    },
    {
      "rank": 1,
      "name": "동원복권",
      "address": "경남 양산시 북정중앙로 30",
      "method": "auto",
      "lat": 35.36137,
      "lng": 129.04784
    },
    {
      "rank": 1,
      "name": "로또판매업",
      "address": "경남 양산시 북정로 31 CU편의점 내",
      "method": "auto",
      "lat": 35.35902,
      "lng": 129.04372
    },
    {
      "rank": 1,
      "name": "세븐일레븐창원사림중앙점",
      "address": "경남 창원시 의창구 창이대로413번길 32 세븐일레븐",
      "method": "auto",
      "lat": 35.244663,
      "lng": 128.68405
    },
    {
      "rank": 1,
      "name": "GS25(노형이화점)",
      "address": "제주 제주시  원노형로 3",
      "method": "manual",
      "lat": 33.4881,
      "lng": 126.48404
    }
  ]
}