{
  "round": 980,
  "date": "2021-09-11",
  "nums": [
    3,
    13,
    16,
    23,
    24,
    35
  ],
  "bonus": 14,
  "firstWinAmount": 3409443215,
  "firstWinners": 7,
  "totalSales": 99593380000,
  "prizes": {
    "first": {
      "amount": 3409443215,
      "winners": 7
    },
    "second": {
      "amount": 56824054,
      "winners": 70
    },
    "third": {
      "amount": 1411027,
      "winners": 2819
    },
    "fourth": {
      "amount": 50000,
      "winners": 135751
    },
    "fifth": {
      "amount": 5000,
      "winners": 2237534
    }
  },
  "methodCounts": {
    "auto": 5,
    "manual": 2,
    "mixed": 0
  },
  "topStores": [
    {
      "rank": 1,
      "name": "세븐일레븐",
      "address": "서울 양천구 중앙로36길 15 목동힐스테이트 104호",
      "method": "auto",
      "lat": 37.520966,
      "lng": 126.85539
    },
    {
      "rank": 1,
      "name": "간이매점",
      "address": "경기 시흥시 삼미시장4길 26",
      "method": "manual",
      "lat": 37.44011,
      "lng": 126.782
    },
    {
      "rank": 1,
      "name": "오뚜기로또",
      "address": "경기 안산시 단원구 원초로 30 보성프라자 143호",
      "method": "auto",
      "lat": 37.328346,
      "lng": 126.80174
    },
    {
      "rank": 1,
      "name": "CU(원주무실대로점)",
      "address": "강원 원주시  시청로 84 1층 CU편의점",
      "method": "auto",
      "lat": 37.33639,
      "lng": 127.92798
    },
    {
      "rank": 1,
      "name": "한성로또복권",
      "address": "강원 정선군  고한9길 40",
      "method": "manual",
      "lat": 37.196945,
      "lng": 128.85828
    },
    {
      "rank": 1,
      "name": "순창복권방",
      "address": "전북 순창군 순창읍 장류로 369,(남계리)",
      "method": "auto",
      "lat": 35.376488,
      "lng": 127.1428
    },
    {
      "rank": 1,
      "name": "행운복권방",
      "address": "제주 제주시 우정로11길 12",
      "method": "auto",
      "lat": 33.48765,
      "lng": 126.4322
    }
  ]
}