{
  "round": 983,
  "date": "2021-10-02",
  "nums": [
    13,
    23,
    26,
    31,
    35,
    43
  ],
  "bonus": 15,
  "firstWinAmount": 2503422225,
  "firstWinners": 10,
  "totalSales": 101899006000,
  "prizes": {
    "first": {
      "amount": 2503422225,
      "winners": 10
    },
    "second": {
      "amount": 53491928,
      "winners": 78
    },
    "third": {
      "amount": 1580444,
      "winners": 2640
    },
    "fourth": {
      "amount": 50000,
      "winners": 131780
    },
    "fifth": {
      "amount": 5000,
      "winners": 2196308
    }
  },
  "methodCounts": {
    "auto": 9,
    "manual": 1,
    "mixed": 0
  },
  "topStores": [
    {
      "rank": 1,
      "name": "GS25(방이중앙점)",
      "address": "서울 송파구  오금로11길 6",
      "method": "auto",
      "lat": 37.51422,
      "lng": 127.10795
    },
    {
      "rank": 1,
      "name": "갑부복권판매점",
      "address": "서울 용산구 대사관로 80",
      "method": "auto",
      "lat": 37.53306,
      "lng": 127.006836
    },
    {
      "rank": 1,
      "name": "미화당슈퍼한신태화점",
      "address": "부산 사상구 낙동대로1210번길 53 한신괘법1차아파트상가",
      "method": "auto",
      "lat": 35.167786,
      "lng": 128.98055
    },
    {
      "rank": 1,
      "name": "복권방",
      "address": "대구 달서구 성지로 66",
      "method": "auto",
      "lat": 35.85494,
      "lng": 128.52121
    },
    {
      "rank": 1,
      "name": "해피+24시편의점",
      "address": "광주 북구 하서로 330",
      "method": "auto",
      "lat": 35.2045,
      "lng": 126.8739
    },
    {
      "rank": 1,
      "name": "현암꽃플라워",
      "address": "대전 동구 태전로 167",
      "method": "auto",
      "lat": 36.342148,
      "lng": 127.419106
    },
    {
      "rank": 1,
      "name": "영화모음",
      "address": "경기 수원시 장안구 금당로39번길 6 뉴타운프라자A-107",
      "method": "auto",
      "lat": 37.30316,
      "lng": 127.0161
    },
    {
      "rank": 1,
      "name": "명지나눔로또",
      "address": "경기 용인시 처인구 명지로 41 에이치탑용인빌딩5 제지1층 제비111호",
      "method": "auto",
      "lat": 37.230343,
      "lng": 127.18772
    },
    {
      "rank": 1,
      "name": "행운복권",
      "address": "경기 의정부시 평화로 359 회룡한주아파트 상가동 110호",
      "method": "manual",
      "lat": 37.723663,
      "lng": 127.04769
    },
    {
      "rank": 1,
      "name": "팡팡복권방",
      "address": "경남 창원시 성산구 신촌로 101",
      "method": "auto",
      "lat": 35.200634,
      "lng": 128.62883
    }
  ]
}