{
  "round": 995,
  "date": "2021-12-25",
  "nums": [
    1,
    4,
    13,
    29,
    38,
    39
  ],
  "bonus": 7,
  "firstWinAmount": 3447271875,
  "firstWinners": 7,
  "totalSales": 100878455000,
  "prizes": {
    "first": {
      "amount": 3447271875,
      "winners": 7
    },
    "second": {
      "amount": 58287206,
      "winners": 69
    },
    "third": {
      "amount": 1439964,
      "winners": 2793
    },
    "fourth": {
      "amount": 50000,
      "winners": 138372
    },
    "fifth": {
      "amount": 5000,
      "winners": 2269218
    }
  },
  "methodCounts": {
    "auto": 7,
    "manual": 0,
    "mixed": 0
  },
  "topStores": [
    {
      "rank": 1,
      "name": "찻잔에담긴행운",
      "address": "경기 남양주시 덕소로 125 나동 102호",
      "method": "auto",
      "lat": 37.584072,
      "lng": 127.21269
    },
    {
      "rank": 1,
      "name": "용꿈돼지꿈복권전문점",
      "address": "강원 동해시 중앙로 234 이주민상가1층15호",
      "method": "auto",
      "lat": 37.52171,
      "lng": 129.115
    },
    {
      "rank": 1,
      "name": "영약국",
      "address": "충남 금산군 인삼로 104",
      "method": "auto",
      "lat": 36.10224,
      "lng": 127.49309
    },
    {
      "rank": 1,
      "name": "이마트24 순천산단점",
      "address": "전남 순천시 산단1길 6 중앙정밀기계,마트",
      "method": "auto",
      "lat": 34.987934,
      "lng": 127.50839
    },
    {
      "rank": 1,
      "name": "경이네복권마트",
      "address": "경북 포항시 북구 장량중앙로 81 431동117호,삼구트리니엔4차상가",
      "method": "auto",
      "lat": 36.090385,
      "lng": 129.39249
    },
    {
      "rank": 1,
      "name": "로또명당 신마산점",
      "address": "경남 창원시 마산합포구 문화동7길 3 1층",
      "method": "auto",
      "lat": 35.184795,
      "lng": 128.5606
    },
    {
      "rank": 1,
      "name": "채널큐",
      "address": "경남 창원시 마산합포구 산호남로 11-1",
      "method": "auto",
      "lat": 35.21755,
      "lng": 128.58145
    }
  ]
}